{"stops":{"1100481":{"Id":"1100481","name":"Kandern, Busbahnhof","coords":{"lat":50.6265858264441,"lon":2.9867096739035}},"1100507":{"Id":"1100507","name":"Binzen, J. P. Hebel-Str.","coords":{"lat":50.5768900712114,"lon":2.85710074469269}},"1100553":{"Id":"1100553","name":"Haltingen, Gewerbestr.","coords":{"lat":47.6181071166298,"lon":7.61320406766703}},"1100554":{"Id":"1100554","name":"Wittlingen, Bahnhof","coords":{"lat":50.6171250998173,"lon":2.89999529951537}},"1100555":{"Id":"1100555","name":"Rümmingen, Altes Rathaus","coords":{"lat":50.6105470635409,"lon":2.86812307323037}},"1100568":{"Id":"1100568","name":"Schallbach, Dorfstr.","coords":{"lat":47.6554608027819,"lon":7.62704710619724}},"1100569":{"Id":"1100569","name":"Wittlingen, Hirschen","coords":{"lat":47.6569977182543,"lon":7.64860667301911}},"1100570":{"Id":"1100570","name":"Wollbach, Bahnhof","coords":{"lat":50.6186925204028,"lon":2.91821313347985}},"1100571":{"Id":"1100571","name":"Hammerstein, Abzw. Bahnhof","coords":{"lat":50.6181396543774,"lon":2.95216046807145}},"1100572":{"Id":"1100572","name":"Kandern, Staiggasse","coords":{"lat":47.7115409996262,"lon":7.65942238904141}},"1100655":{"Id":"1100655","name":"Binzen, Rathausplatz","coords":{"lat":47.6313180347558,"lon":7.62373232279838}},"1100656":{"Id":"1100656","name":"Binzen, Dreispitz","coords":{"lat":47.6255424529053,"lon":7.60928741302772}},"1322000":{"Id":"1322000","name":"Altoggio","coords":{"lat":46.1672513851495,"lon":8.345807131427}},"1322001":{"Id":"1322001","name":"Antronapiana","coords":{"lat":46.060121674738,"lon":8.11361957990831}},"1322002":{"Id":"1322002","name":"Anzola","coords":{"lat":45.9898698225697,"lon":8.34571729989858}},"1322003":{"Id":"1322003","name":"Baceno","coords":{"lat":46.2614983591677,"lon":8.31925293162473}},"1322004":{"Id":"1322004","name":"Beura Cardezza, centro","coords":{"lat":46.0790618438814,"lon":8.29927439970313}},"1322005":{"Id":"1322005","name":"Bognanco, T. Villa Elda","coords":{"lat":46.1222963432243,"lon":8.21077237789936}},"1322006":{"Id":"1322006","name":"Boschetto","coords":{"lat":46.0656504576122,"lon":8.26113193273411}},"1322007":{"Id":"1322007","name":"Cadarese","coords":{"lat":46.2978807772998,"lon":8.3626325767009}},"1322008":{"Id":"1322008","name":"Caddo","coords":{"lat":46.1340194356792,"lon":8.28619492916453}},"1322010":{"Id":"1322010","name":"Campioli","coords":{"lat":45.9695691829797,"lon":8.04585965801774}},"1322012":{"Id":"1322012","name":"Castiglione","coords":{"lat":46.0205875326422,"lon":8.2148866619012}},"1322013":{"Id":"1322013","name":"Ceppo Morelli","coords":{"lat":45.9710364221151,"lon":8.06992552448265}},"1322014":{"Id":"1322014","name":"Chiesa (Val Formazza)","coords":{"lat":46.3530849443472,"lon":8.42787721579558}},"1322015":{"Id":"1322015","name":"Cosasca di Trontano","coords":{"lat":46.0967496675661,"lon":8.31182386422403}},"1322016":{"Id":"1322016","name":"Cresti","coords":{"lat":46.0664046229574,"lon":8.2328978833503}},"1322017":{"Id":"1322017","name":"Crevoladossola","coords":{"lat":46.1562758593614,"lon":8.30343359946918}},"1322018":{"Id":"1322018","name":"Crodo, Bagni","coords":{"lat":46.2141837457637,"lon":8.32131905677849}},"1322019":{"Id":"1322019","name":"Crodo, paese","coords":{"lat":46.224016613202,"lon":8.3235648449891}},"1322021":{"Id":"1322021","name":"Croppo di Trontano","coords":{"lat":46.1103590121829,"lon":8.31194064521098}},"1322022":{"Id":"1322022","name":"Crusinallo","coords":{"lat":45.6945937446539,"lon":0.595870494345107}},"1322025":{"Id":"1322025","name":"Cuzzego di Cardezza","coords":{"lat":46.0506335666547,"lon":8.27917908679458}},"1322026":{"Id":"1322026","name":"Domodossola, Cappuccina","coords":{"lat":46.1231804870982,"lon":8.28951869571624}},"1322027":{"Id":"1322027","name":"Domodossola, Corso Cairoli 20","coords":{"lat":46.1250296717215,"lon":8.29151295564726}},"1322030":{"Id":"1322030","name":"Domodossola, piazza Orsi Mose","coords":{"lat":46.1116481443012,"lon":8.29290534433784}},"1322031":{"Id":"1322031","name":"Domodossola, piazza Repubblica","coords":{"lat":46.1149673650401,"lon":8.2918183828439}},"1322033":{"Id":"1322033","name":"Domodossola, via Sant'Antonio","coords":{"lat":46.1223087960535,"lon":8.29057870775165}},"1322034":{"Id":"1322034","name":"Domodossola, via Scappacino","coords":{"lat":46.121163123991,"lon":8.28403897248234}},"1322035":{"Id":"1322035","name":"Domodossola, via Torino","coords":{"lat":46.1086712622384,"lon":8.29631894241797}},"1322036":{"Id":"1322036","name":"Domodossola, via Turati","coords":{"lat":46.1210074601876,"lon":8.28910547068548}},"1322038":{"Id":"1322038","name":"Fondovalle","coords":{"lat":46.3445650923203,"lon":8.42586498955888}},"1322039":{"Id":"1322039","name":"Foppiano","coords":{"lat":46.3333830971239,"lon":8.40435033850122}},"1322040":{"Id":"1322040","name":"Gabbio","coords":{"lat":46.1216114332874,"lon":8.23722776302036}},"1322041":{"Id":"1322041","name":"Giosio","coords":{"lat":46.1582981587513,"lon":8.33162273308878}},"1322042":{"Id":"1322042","name":"Gozzi","coords":{"lat":46.0188970358977,"lon":8.2418720530399}},"1322043":{"Id":"1322043","name":"Gravellona Toce, crociera","coords":{"lat":45.930813763811,"lon":8.4356476430043}},"1322045":{"Id":"1322045","name":"Gravellona Toce, via Sempione","coords":{"lat":45.9289955599764,"lon":8.43171302205931}},"1322048":{"Id":"1322048","name":"Locasca","coords":{"lat":46.0524415447647,"lon":8.13400235370782}},"1322049":{"Id":"1322049","name":"Macugnaga, Borca","coords":{"lat":45.9628630932191,"lon":7.98509761219144}},"1322050":{"Id":"1322050","name":"Macugnaga, Pecetto","coords":{"lat":45.9724661624338,"lon":7.95336013319908}},"1322051":{"Id":"1322051","name":"Macugnaga, Pestarena","coords":{"lat":45.9593411343863,"lon":8.01267589141774}},"1322052":{"Id":"1322052","name":"Macugnaga, Staffa","coords":{"lat":45.9682954630235,"lon":7.96749961577309}},"1322053":{"Id":"1322053","name":"Madonna (Valle d'Antrona)","coords":{"lat":46.0482519327487,"lon":8.14155718524831}},"1322055":{"Id":"1322055","name":"Masera","coords":{"lat":46.1367957559513,"lon":8.32623284138331}},"1322057":{"Id":"1322057","name":"Megolo Mezzo","coords":{"lat":45.9915799300841,"lon":8.30794314219609}},"1322058":{"Id":"1322058","name":"Migiandone Bivio","coords":{"lat":45.9868114693661,"lon":8.39559176447983}},"1322059":{"Id":"1322059","name":"Miramonti","coords":{"lat":46.232132685143,"lon":8.32336721562657}},"1322060":{"Id":"1322060","name":"Mocogna","coords":{"lat":46.1236474587703,"lon":8.27509175225127}},"1322061":{"Id":"1322061","name":"Molini","coords":{"lat":46.0099072164743,"lon":8.18588904452578}},"1322062":{"Id":"1322062","name":"Montecrestese","coords":{"lat":46.1653849536492,"lon":8.32661013380269}},"1322063":{"Id":"1322063","name":"Nava","coords":{"lat":46.1695034615162,"lon":8.3365365176936}},"1322064":{"Id":"1322064","name":"Naviledo","coords":{"lat":46.1599283890748,"lon":8.34076758268239}},"1322065":{"Id":"1322065","name":"Oira","coords":{"lat":46.174697816417,"lon":8.31578543462755}},"1322067":{"Id":"1322067","name":"Omegna, Ospedale","coords":{"lat":45.8734085121291,"lon":8.4109080400762}},"1322068":{"Id":"1322068","name":"Omegna, via de Amicis","coords":{"lat":45.8764793790876,"lon":8.41100685475747}},"1322070":{"Id":"1322070","name":"Ornavasso, stazione","coords":{"lat":45.9711675352099,"lon":8.41424977293359}},"1322073":{"Id":"1322073","name":"Pallanzeno, stazione","coords":{"lat":46.0429583524713,"lon":8.26048514572945}},"1322074":{"Id":"1322074","name":"Passo","coords":{"lat":46.3151198378836,"lon":8.38144329875298}},"1322075":{"Id":"1322075","name":"Piedilago","coords":{"lat":46.2791151848311,"lon":8.35259839497589}},"1322076":{"Id":"1322076","name":"Piedimulera, stazione","coords":{"lat":46.0244174705878,"lon":8.26086243814883}},"1322077":{"Id":"1322077","name":"Piedimulera, piazza Gramsci","coords":{"lat":46.0213984536963,"lon":8.25804172815631}},"1322078":{"Id":"1322078","name":"Pieve Vergonte, centro","coords":{"lat":46.0099446510908,"lon":8.26406942371359}},"1322079":{"Id":"1322079","name":"Ponte di Crevola","coords":{"lat":46.1528906749873,"lon":8.30438581367048}},"1322080":{"Id":"1322080","name":"Ponte Formazza","coords":{"lat":46.3765417769691,"lon":8.4269070352886}},"1322081":{"Id":"1322081","name":"Pontegrande","coords":{"lat":45.9904814729326,"lon":8.1473962345959}},"1322082":{"Id":"1322082","name":"Pontemaglio","coords":{"lat":46.1804576889966,"lon":8.32344806400215}},"1322083":{"Id":"1322083","name":"Pontetto di Montecrestese","coords":{"lat":46.1505196773816,"lon":8.31420439972728}},"1322084":{"Id":"1322084","name":"Prata di Vogogna","coords":{"lat":46.0384998790105,"lon":8.27993367163335}},"1322085":{"Id":"1322085","name":"Prato","coords":{"lat":46.05294652118,"lon":8.19670476054809}},"1322086":{"Id":"1322086","name":"Preglia di Crevoladossola","coords":{"lat":46.1454848581969,"lon":8.29621114458386}},"1322087":{"Id":"1322087","name":"Premia","coords":{"lat":46.2674230135132,"lon":8.33600651167589}},"1322090":{"Id":"1322090","name":"Rivasco","coords":{"lat":46.3275027946821,"lon":8.39119001958704}},"1322091":{"Id":"1322091","name":"Roldo","coords":{"lat":46.1541663663428,"lon":8.32432841298071}},"1322092":{"Id":"1322092","name":"Rumianca","coords":{"lat":45.993901597327,"lon":8.28818918909555}},"1322093":{"Id":"1322093","name":"San Carlo","coords":{"lat":45.9881908699962,"lon":8.13300522374231}},"1322094":{"Id":"1322094","name":"San Lorenzo","coords":{"lat":46.1267169207052,"lon":8.20008242601685}},"1322095":{"Id":"1322095","name":"San Michele","coords":{"lat":46.3674429118756,"lon":8.42931452025038}},"1322096":{"Id":"1322096","name":"San Rocco","coords":{"lat":46.3029326698351,"lon":8.3673936477074}},"1322097":{"Id":"1322097","name":"Schieranco","coords":{"lat":46.0448414038186,"lon":8.15660396625941}},"1322098":{"Id":"1322098","name":"Seppiana","coords":{"lat":45.9847329410541,"lon":8.12414783503965}},"1322099":{"Id":"1322099","name":"Valbianca","coords":{"lat":45.9940763425331,"lon":8.16105062691642}},"1322100":{"Id":"1322100","name":"Valdo","coords":{"lat":46.3725007787726,"lon":8.42751788968189}},"1322101":{"Id":"1322101","name":"Vanzone","coords":{"lat":45.9804195897628,"lon":8.11494908652899}},"1322104":{"Id":"1322104","name":"Viganella","coords":{"lat":46.0516622511125,"lon":8.19434219135052}},"1322105":{"Id":"1322105","name":"Villadossola, Bivio Gaggio","coords":{"lat":46.0680936666404,"lon":8.26307229374808}},"1322106":{"Id":"1322106","name":"Villadossola, Corso Italia","coords":{"lat":46.0916476333918,"lon":8.28041876188684}},"1322109":{"Id":"1322109","name":"Villadossola, Corso Sempione","coords":{"lat":46.0676885501733,"lon":8.26297347906681}},"1322110":{"Id":"1322110","name":"Villadossola, Stab Sisma","coords":{"lat":46.0719140803149,"lon":8.26344958616746}},"1322111":{"Id":"1322111","name":"Villadossola, Via B. Novello","coords":{"lat":46.0639052420998,"lon":8.26172482082171}},"1322112":{"Id":"1322112","name":"Villadossola, Villagio Sisma","coords":{"lat":46.0700506489311,"lon":8.26055701095219}},"1322116":{"Id":"1322116","name":"Varzo, Stazione","coords":{"lat":46.2066121082546,"lon":8.24524971850866}},"1322117":{"Id":"1322117","name":"Varzo, Piazza Mercato","coords":{"lat":46.2063820832263,"lon":8.25438558494943}},"1322118":{"Id":"1322118","name":"San Domenico, bivio","coords":{"lat":46.2298583174031,"lon":8.21968366551906}},"1322119":{"Id":"1322119","name":"Trasquera","coords":{"lat":46.2132389021895,"lon":8.21319782916682}},"1322120":{"Id":"1322120","name":"San Domenico, paese","coords":{"lat":46.2493054681108,"lon":8.1913957172182}},"1322122":{"Id":"1322122","name":"Croveo","coords":{"lat":46.2715835515338,"lon":8.3056793876798}},"1322123":{"Id":"1322123","name":"Goglio","coords":{"lat":46.2935174040815,"lon":8.26683623478906}},"1322124":{"Id":"1322124","name":"Devero","coords":{"lat":46.3142760073783,"lon":8.26005395439302}},"1322125":{"Id":"1322125","name":"Stresa, Imbarcadero Nord","coords":{"lat":45.8847217225551,"lon":8.53916949636064}},"1322126":{"Id":"1322126","name":"Stresa, Stazione FS","coords":{"lat":45.8844465805896,"lon":8.53233331704754}},"1322127":{"Id":"1322127","name":"Stresa, Ponte del roddo","coords":{"lat":45.8879670442677,"lon":8.52579358177824}},"1322128":{"Id":"1322128","name":"Baveno, Imbarcadero","coords":{"lat":45.9097164348008,"lon":8.50561742049411}},"1322129":{"Id":"1322129","name":"Feriolo, SS 33 bus stop","coords":{"lat":45.9290517939778,"lon":8.47826372008886}},"1322130":{"Id":"1322130","name":"Omegna, Centro commerciale","coords":{"lat":45.881863931624,"lon":8.41043193297556}},"1322131":{"Id":"1322131","name":"Orta S., Prarondo","coords":{"lat":45.8023747756262,"lon":8.40706325065964}},"1322132":{"Id":"1322132","name":"Baveno, Portici","coords":{"lat":45.9086476066341,"lon":8.50547369004863}},"8000709":{"Id":"8000709","name":"Neckarsulm Mitte","coords":{"lat":49.1934688770383,"lon":9.22294014126908}},"8001304":{"Id":"8001304","name":"Kiel Hbf","coords":{"lat":54.314980686643,"lon":10.1319723268547}},"8004238":{"Id":"8004238","name":"Neckarsulm Nord","coords":{"lat":49.2021565314021,"lon":9.2286803759354}},"8014008":{"Id":"8014008","name":"Mannheim Hbf","coords":{"lat":49.4793503131101,"lon":8.46891225797988}},"8014008:0:10b":{"Id":"8014008:0:10b","name":"Mannheim Hbf","coords":{"lat":49.4798756000244,"lon":8.46891225797988}},"8014008:0:7b":{"Id":"8014008:0:7b","name":"Mannheim Hbf","coords":{"lat":49.4797588700859,"lon":8.46891225797988}},"8014008:0:8b":{"Id":"8014008:0:8b","name":"Mannheim Hbf","coords":{"lat":49.4801674236532,"lon":8.46891225797988}},"8014008:0:9b":{"Id":"8014008:0:9b","name":"Mannheim Hbf","coords":{"lat":49.4797005050124,"lon":8.46891225797988}},"8014015":{"Id":"8014015","name":"Mannheim ARENA","coords":{"lat":49.4597822807664,"lon":8.51636127129367}},"8014020":{"Id":"8014020","name":"Heidelberg Pfaffengrund/Wiebl.","coords":{"lat":49.4120495298477,"lon":8.64156845561168}},"8014021":{"Id":"8014021","name":"Heidelberg Hbf","coords":{"lat":49.4035683266194,"lon":8.67544392498055}},"8014031":{"Id":"8014031","name":"Heidelberg-Kirchheim","coords":{"lat":49.3793909058499,"lon":8.67539002606349}},"8014033":{"Id":"8014033","name":"St Ilgen-Sandhausen","coords":{"lat":49.3412617289193,"lon":8.66871554350155}},"8014035":{"Id":"8014035","name":"Wiesloch-Walldorf","coords":{"lat":49.2913572370553,"lon":8.66414311870475}},"8014036":{"Id":"8014036","name":"Rot-Malsch","coords":{"lat":49.2433903228376,"lon":8.65220450857714}},"8014037":{"Id":"8014037","name":"Bad Schönborn-Kronau","coords":{"lat":49.2193453707874,"lon":8.64682360002451}},"8014038":{"Id":"8014038","name":"Bad Schönborn Süd","coords":{"lat":49.2000023702051,"lon":8.64192778172538}},"8014039":{"Id":"8014039","name":"Ubstadt-Weiher","coords":{"lat":49.1670208428284,"lon":8.62334163849436}},"8014040":{"Id":"8014040","name":"Bruchsal","coords":{"lat":49.1246181511505,"lon":8.58965481533519}},"8014040:0:1a":{"Id":"8014040:0:1a","name":"Bruchsal","coords":{"lat":49.1249708730263,"lon":8.58965481533519}},"8014040:0:2b":{"Id":"8014040:0:2b","name":"Bruchsal","coords":{"lat":49.1248532993465,"lon":8.58965481533519}},"8014040:0:3b":{"Id":"8014040:0:3b","name":"Bruchsal","coords":{"lat":49.1246769383041,"lon":8.58965481533519}},"8014043":{"Id":"8014043","name":"Karlsruhe-Durlach","coords":{"lat":49.0023255528038,"lon":8.46281269719986}},"8014043:0:2b":{"Id":"8014043:0:2b","name":"Karlsruhe-Durlach","coords":{"lat":49.0025612803799,"lon":8.46281269719986}},"8014061":{"Id":"8014061","name":"Schwetzingen","coords":{"lat":49.38343787162,"lon":8.57868638571456}},"8014063":{"Id":"8014063","name":"Hockenheim","coords":{"lat":49.317416711644,"lon":8.53739083209784}},"8014066":{"Id":"8014066","name":"Waghäusel","coords":{"lat":49.2481814895439,"lon":8.50832134949968}},"8014068":{"Id":"8014068","name":"Graben-Neudorf","coords":{"lat":49.1617988567701,"lon":8.49062453840007}},"8014094":{"Id":"8014094","name":"Bretten","coords":{"lat":49.0369007537203,"lon":8.69345514642965}},"8014112":{"Id":"8014112","name":"Heidelberg Altstadt","coords":{"lat":49.4152931588691,"lon":8.72088071205764}},"8014113":{"Id":"8014113","name":"Heidelberg Schlierbach/Ziegelh","coords":{"lat":49.4153691331959,"lon":8.76056828131556}},"8014114":{"Id":"8014114","name":"Neckargemünd","coords":{"lat":49.3936766099977,"lon":8.78842503827998}},"8014121":{"Id":"8014121","name":"Eberbach","coords":{"lat":49.4657667718505,"lon":8.98414997241119}},"8014126":{"Id":"8014126","name":"Mosbach-Neckarelz","coords":{"lat":49.3487178777682,"lon":9.11309414831166}},"8014130":{"Id":"8014130","name":"Neckarzimmern","coords":{"lat":49.3166203124436,"lon":9.13758222296016}},"8014131":{"Id":"8014131","name":"Hassmersheim","coords":{"lat":49.3040928986123,"lon":9.15413817364879}},"8014132":{"Id":"8014132","name":"Gundelsheim (Neckar)","coords":{"lat":49.282937240168,"lon":9.15786618207841}},"8014134":{"Id":"8014134","name":"Offenau","coords":{"lat":49.2464750195788,"lon":9.16528626632626}},"8014169":{"Id":"8014169","name":"Bammental","coords":{"lat":49.3595898904577,"lon":8.78368193357917}},"8014170":{"Id":"8014170","name":"Reilsheim","coords":{"lat":49.3539669374163,"lon":8.77883103104425}},"8014171":{"Id":"8014171","name":"Mauer(b Heidelberg)","coords":{"lat":49.3358005829369,"lon":8.79554867848404}},"8014172":{"Id":"8014172","name":"Meckesheim","coords":{"lat":49.3206607341402,"lon":8.81283226455291}},"8014184":{"Id":"8014184","name":"Zuzenhausen (D)","coords":{"lat":49.297397420589,"lon":8.82144710812882}},"8014185":{"Id":"8014185","name":"Hoffenheim","coords":{"lat":49.2720307091591,"lon":8.83840730069535}},"8014186":{"Id":"8014186","name":"Sinsheim(Elsenz) Hbf","coords":{"lat":49.2503570066164,"lon":8.8750944969039}},"8014186:0:1a":{"Id":"8014186:0:1a","name":"Sinsheim(Elsenz) Hbf","coords":{"lat":49.2504742824416,"lon":8.8750944969039}},"8014186:0:2a":{"Id":"8014186:0:2a","name":"Sinsheim(Elsenz) Hbf","coords":{"lat":49.2505329202497,"lon":8.8750944969039}},"8014186:0:3a":{"Id":"8014186:0:3a","name":"Sinsheim(Elsenz) Hbf","coords":{"lat":49.2504156445639,"lon":8.8750944969039}},"8014187":{"Id":"8014187","name":"Steinsfurt","coords":{"lat":49.2358243762121,"lon":8.90798181946009}},"8014194":{"Id":"8014194","name":"Grombach","coords":{"lat":49.2261453131799,"lon":8.99689706629462}},"8014195":{"Id":"8014195","name":"Babstadt","coords":{"lat":49.2401939984167,"lon":9.06070440093451}},"8014196":{"Id":"8014196","name":"Bad Rappenau","coords":{"lat":49.2377658265529,"lon":9.10152384745058}},"8014198":{"Id":"8014198","name":"Bad Wimpfen","coords":{"lat":49.2297414531406,"lon":9.16729849256297}},"8014200":{"Id":"8014200","name":"Bad Wimpfen-Hohenstadt","coords":{"lat":49.242534080069,"lon":9.13875003282968}},"8014228":{"Id":"8014228","name":"Karlsruhe Hbf","coords":{"lat":48.9935144344847,"lon":8.40218539866619}},"8014238":{"Id":"8014238","name":"Ettlingen West","coords":{"lat":48.947299811499,"lon":8.38787523618817}},"8014239":{"Id":"8014239","name":"Bruchhausen (b Ettl)","coords":{"lat":48.9241085567188,"lon":8.37397829874091}},"8014240":{"Id":"8014240","name":"Malsch","coords":{"lat":48.8895022945634,"lon":8.32359179444763}},"8014241":{"Id":"8014241","name":"Muggensturm","coords":{"lat":48.876801615539,"lon":8.27429225164829}},"8014245":{"Id":"8014245","name":"Rastatt","coords":{"lat":48.8604809400902,"lon":8.21562328043428}},"8014277":{"Id":"8014277","name":"Baden-Baden","coords":{"lat":48.7903277757812,"lon":8.19082977858913}},"8014281":{"Id":"8014281","name":"Bühl (Baden)","coords":{"lat":48.6966789333037,"lon":8.12929518161837}},"8014283":{"Id":"8014283","name":"Achern","coords":{"lat":48.6339911003154,"lon":8.06531716707448}},"8014288":{"Id":"8014288","name":"Renchen (D)","coords":{"lat":48.5926609193181,"lon":8.00713328611396}},"8014289":{"Id":"8014289","name":"Appenweier","coords":{"lat":48.5414606157058,"lon":7.9731949346752}},"8014309":{"Id":"8014309","name":"Offenburg","coords":{"lat":48.4764776857793,"lon":7.94672158324851}},"8014318":{"Id":"8014318","name":"Friesenheim (Baden)","coords":{"lat":48.3815945762439,"lon":7.86294469983986}},"8014319":{"Id":"8014319","name":"Lahr (Schwarzw)","coords":{"lat":48.3404342856541,"lon":7.83473759991458}},"8014324":{"Id":"8014324","name":"Orschweier","coords":{"lat":48.2741893631627,"lon":7.79027997649732}},"8014325":{"Id":"8014325","name":"Ringsheim","coords":{"lat":48.2487847393555,"lon":7.77303232303982}},"8014326":{"Id":"8014326","name":"Herbolzheim (Breisgau)","coords":{"lat":48.2238702126374,"lon":7.76764243133435}},"8014327":{"Id":"8014327","name":"Kenzingen","coords":{"lat":48.1944525911259,"lon":7.76409408596159}},"8014328":{"Id":"8014328","name":"Riegel-Malterdingen","coords":{"lat":48.1519665950926,"lon":7.77084941689911}},"8014329":{"Id":"8014329","name":"Köndringen","coords":{"lat":48.1374550668564,"lon":7.80292825569948}},"8014330":{"Id":"8014330","name":"Teningen-Mundingen","coords":{"lat":48.1287737616358,"lon":7.82441595729861}},"8014331":{"Id":"8014331","name":"Emmendingen","coords":{"lat":48.1194553136699,"lon":7.84751164325654}},"8014332":{"Id":"8014332","name":"Kollmarsreute","coords":{"lat":48.0982696447784,"lon":7.88707344837467}},"8014335":{"Id":"8014335","name":"Denzlingen","coords":{"lat":48.0686238493883,"lon":7.88143202838961}},"8014347":{"Id":"8014347","name":"Gundelfingen (Breisgau)","coords":{"lat":48.0440240811432,"lon":7.87418262404576}},"8014348":{"Id":"8014348","name":"Freiburg (D) Zähringen","coords":{"lat":48.0243634409176,"lon":7.86374420044284}},"8014349":{"Id":"8014349","name":"Freiburg (D) Herdern","coords":{"lat":48.0082412865763,"lon":7.85097015710088}},"8014350":{"Id":"8014350","name":"Freiburg (Breisgau) Hbf","coords":{"lat":47.9976987706158,"lon":7.84116953734977}},"8014364":{"Id":"8014364","name":"Freiburg (D) Wiehre","coords":{"lat":47.9825303579857,"lon":7.85412324374858}},"8014365":{"Id":"8014365","name":"Freiburg (D) Littenweiler","coords":{"lat":47.9817366441082,"lon":7.89514031962719}},"8014367":{"Id":"8014367","name":"Kirchzarten","coords":{"lat":47.9679950417095,"lon":7.95912731732393}},"8014368":{"Id":"8014368","name":"Himmelreich","coords":{"lat":47.95867753857,"lon":7.99135886972262}},"8014372":{"Id":"8014372","name":"Hinterzarten","coords":{"lat":47.9063323675622,"lon":8.10602881575644}},"8014373":{"Id":"8014373","name":"Titisee","coords":{"lat":47.9034056860868,"lon":8.15506784712335}},"8014376":{"Id":"8014376","name":"Feldberg-Bärental","coords":{"lat":47.8715025616923,"lon":8.0982943211591}},"8014377":{"Id":"8014377","name":"Altglashütten-Falkau","coords":{"lat":47.8594554692097,"lon":8.11411365331464}},"8014378":{"Id":"8014378","name":"Aha","coords":{"lat":47.8332845317294,"lon":8.13434371351583}},"8014379":{"Id":"8014379","name":"Schluchsee","coords":{"lat":47.8169277761563,"lon":8.17712148735156}},"8014380":{"Id":"8014380","name":"Seebrugg","coords":{"lat":47.8035164587159,"lon":8.19111723948009}},"8014384":{"Id":"8014384","name":"Neustadt (Schwarzw)","coords":{"lat":47.910198223983,"lon":8.21088017573347}},"8014404":{"Id":"8014404","name":"Freiburg (D) St. Georgen","coords":{"lat":47.9754947414899,"lon":7.80300012092222}},"8014405":{"Id":"8014405","name":"Ebringen","coords":{"lat":47.960355895962,"lon":7.7681814205049}},"8014406":{"Id":"8014406","name":"Schallstadt","coords":{"lat":47.9559463314961,"lon":7.75388922433257}},"8014407":{"Id":"8014407","name":"Norsingen","coords":{"lat":47.9392491411268,"lon":7.72619416411931}},"8014408":{"Id":"8014408","name":"Bad Krozingen","coords":{"lat":47.919717115923,"lon":7.69762773808033}},"8014410":{"Id":"8014410","name":"Heitersheim","coords":{"lat":47.8798597544108,"lon":7.64619918805733}},"8014411":{"Id":"8014411","name":"Buggingen","coords":{"lat":47.8552482711252,"lon":7.6281610171497}},"8014413":{"Id":"8014413","name":"Müllheim (Baden)","coords":{"lat":47.8097429261213,"lon":7.59933407967829}},"8014413:0:5Nord":{"Id":"8014413:0:5Nord","name":"Müllheim (Baden)","coords":{"lat":47.8100445770962,"lon":7.59933407967829}},"8014413:0:5Süd":{"Id":"8014413:0:5Süd","name":"Müllheim (Baden)","coords":{"lat":47.8101049070809,"lon":7.59933407967829}},"8014416":{"Id":"8014416","name":"Auggen","coords":{"lat":47.7899507947126,"lon":7.5867846151574}},"8014417":{"Id":"8014417","name":"Schliengen","coords":{"lat":47.7616011294385,"lon":7.56893509045946}},"8014418":{"Id":"8014418","name":"Bad Bellingen","coords":{"lat":47.7308010563144,"lon":7.55759835157229}},"8014419":{"Id":"8014419","name":"Rheinweiler","coords":{"lat":47.7095281636292,"lon":7.53164602301046}},"8014420":{"Id":"8014420","name":"Kleinkems","coords":{"lat":47.6861300435097,"lon":7.52465713009904}},"8014421":{"Id":"8014421","name":"Istein","coords":{"lat":47.660894261818,"lon":7.54294682928626}},"8014422":{"Id":"8014422","name":"Efringen-Kirchen","coords":{"lat":47.6556181269164,"lon":7.56391350802053}},"8014423":{"Id":"8014423","name":"Eimeldingen","coords":{"lat":47.6279459958422,"lon":7.59560607124868}},"8014424":{"Id":"8014424","name":"Haltingen","coords":{"lat":47.6128387709584,"lon":7.61167693168381}},"8014428":{"Id":"8014428","name":"Weil am Rhein","coords":{"lat":47.5939652604671,"lon":7.60841604720201}},"8014429":{"Id":"8014429","name":"Weil am Rhein-Ost","coords":{"lat":47.5906332213504,"lon":7.63478160079458}},"8014431":{"Id":"8014431","name":"Basel Bad Bf","coords":{"lat":47.5681454996092,"lon":7.60728416994386}},"8014439":{"Id":"8014439","name":"Riehen","coords":{"lat":47.5831565652384,"lon":7.65201128794639}},"8014440":{"Id":"8014440","name":"Lörrach-Stetten","coords":{"lat":47.6014161438405,"lon":7.65903611346919}},"8014441":{"Id":"8014441","name":"Lörrach Hbf","coords":{"lat":47.6140499318918,"lon":7.66542313514017}},"8014443":{"Id":"8014443","name":"Lörrach Haagen/Messe","coords":{"lat":47.6332309798553,"lon":7.68089212433486}},"8014444":{"Id":"8014444","name":"Lörrach Brombach/Hauingen","coords":{"lat":47.6376135394349,"lon":7.69520228681287}},"8014445":{"Id":"8014445","name":"Steinen (D)","coords":{"lat":47.6416023176234,"lon":7.74156433863273}},"8014446":{"Id":"8014446","name":"Maulburg","coords":{"lat":47.6443743088324,"lon":7.78065901980306}},"8014447":{"Id":"8014447","name":"Schopfheim","coords":{"lat":47.6479631531721,"lon":7.82267322564718}},"8014448":{"Id":"8014448","name":"Fahrnau","coords":{"lat":47.6615597914233,"lon":7.83942680569834}},"8014449":{"Id":"8014449","name":"Hausen-Raitbach","coords":{"lat":47.6793081499928,"lon":7.84603840619038}},"8014450":{"Id":"8014450","name":"Zell (Wiesental)","coords":{"lat":47.7056231609963,"lon":7.84915556022671}},"8014458":{"Id":"8014458","name":"Grenzach","coords":{"lat":47.5508989778822,"lon":7.65950323741699}},"8014459":{"Id":"8014459","name":"Wyhlen (D)","coords":{"lat":47.5463272432746,"lon":7.69091732290703}},"8014460":{"Id":"8014460","name":"Herten (Baden)","coords":{"lat":47.5495044591957,"lon":7.73966889338298}},"8014462":{"Id":"8014462","name":"Rheinfelden (D)","coords":{"lat":47.5569252971634,"lon":7.78420736517583}},"8014463":{"Id":"8014463","name":"Beuggen","coords":{"lat":47.5819083322361,"lon":7.81091427857642}},"8014464":{"Id":"8014464","name":"Schwörstadt","coords":{"lat":47.5910209604456,"lon":7.87032885147635}},"8014465":{"Id":"8014465","name":"Wehr-Brennet","coords":{"lat":47.5809206316323,"lon":7.91051947729345}},"8014466":{"Id":"8014466","name":"Bad Säckingen","coords":{"lat":47.5558522507837,"lon":7.94862601165111}},"8014467":{"Id":"8014467","name":"Murg (Baden)","coords":{"lat":47.5534575200194,"lon":8.01872155328071}},"8014468":{"Id":"8014468","name":"Laufenburg (Baden)","coords":{"lat":47.5634661611117,"lon":8.05831030785737}},"8014469":{"Id":"8014469","name":"Laufenburg (Baden) Ost","coords":{"lat":47.5661634992305,"lon":8.07368946552364}},"8014471":{"Id":"8014471","name":"Albbruck","coords":{"lat":47.5922386848634,"lon":8.13177453180289}},"8014472":{"Id":"8014472","name":"Dogern (D)","coords":{"lat":47.6088841351987,"lon":8.16735680021182}},"8014474":{"Id":"8014474","name":"Waldshut","coords":{"lat":47.6213708024252,"lon":8.2195219687679}},"8014478":{"Id":"8014478","name":"Tiengen (Hochrhein)","coords":{"lat":47.635464678388,"lon":8.27200154767347}},"8014479":{"Id":"8014479","name":"Lauchringen","coords":{"lat":47.6290902129662,"lon":8.32219042260421}},"8014480":{"Id":"8014480","name":"Griessen (Baden)","coords":{"lat":47.6284908642634,"lon":8.39599600635774}},"8014481":{"Id":"8014481","name":"Erzingen (Baden)","coords":{"lat":47.6595450257657,"lon":8.43012300400619}},"8014482":{"Id":"8014482","name":"Wilchingen-Hallau","coords":{"lat":47.6794533059519,"lon":8.46385474292958}},"8014483":{"Id":"8014483","name":"Neunkirch","coords":{"lat":47.6891536471225,"lon":8.49538560940656}},"8014484":{"Id":"8014484","name":"Beringen Bad Bf","coords":{"lat":47.6948980110959,"lon":8.57461701747693}},"8014485":{"Id":"8014485","name":"Neuhausen Bad Bf","coords":{"lat":47.6826163959381,"lon":8.61218456266404}},"8014487":{"Id":"8014487","name":"Herblingen","coords":{"lat":47.7170048831462,"lon":8.66412515239906}},"8014488":{"Id":"8014488","name":"Trasadingen","coords":{"lat":47.6652442518166,"lon":8.43680646972098}},"8014490":{"Id":"8014490","name":"Thayngen","coords":{"lat":47.7454996580134,"lon":8.70429781191048}},"8014491":{"Id":"8014491","name":"Bietingen","coords":{"lat":47.7441405286543,"lon":8.73891888296527}},"8014492":{"Id":"8014492","name":"Gottmadingen","coords":{"lat":47.7375195510796,"lon":8.77543539926981}},"8014497":{"Id":"8014497","name":"Gengenbach","coords":{"lat":48.404661061795,"lon":8.01019654123323}},"8014497:0:2B":{"Id":"8014497:0:2B","name":"Gengenbach","coords":{"lat":48.4047206978015,"lon":8.01019654123323}},"8014499":{"Id":"8014499","name":"Biberach (Baden)","coords":{"lat":48.338386146529,"lon":8.03276222117345}},"8014500":{"Id":"8014500","name":"Steinach (Baden)","coords":{"lat":48.2989957189476,"lon":8.05647774467751}},"8014501":{"Id":"8014501","name":"Haslach","coords":{"lat":48.2800423580628,"lon":8.08797267854312}},"8014502":{"Id":"8014502","name":"Hausach","coords":{"lat":48.2849263155052,"lon":8.18165797953699}},"8014511":{"Id":"8014511","name":"Hornberg (Schwarzw)","coords":{"lat":48.2118992679208,"lon":8.23294279911451}},"8014513":{"Id":"8014513","name":"Triberg","coords":{"lat":48.140002823274,"lon":8.23679657168392}},"8014518":{"Id":"8014518","name":"St Georgen (Schwarzw)","coords":{"lat":48.1238089302668,"lon":8.34195335885759}},"8014521":{"Id":"8014521","name":"Villingen (Schwarzw)","coords":{"lat":48.0580216316592,"lon":8.46526509792584}},"8014529":{"Id":"8014529","name":"Donaueschingen","coords":{"lat":47.9479022684743,"lon":8.49892497162649}},"8014533":{"Id":"8014533","name":"Geisingen","coords":{"lat":47.9214629591724,"lon":8.65395622338141}},"8014534":{"Id":"8014534","name":"Immendingen","coords":{"lat":47.9360113678637,"lon":8.72953148824491}},"8014545":{"Id":"8014545","name":"Weizen","coords":{"lat":47.7688288641585,"lon":8.47651200528458}},"8014546":{"Id":"8014546","name":"Stühlingen","coords":{"lat":47.7470339214024,"lon":8.45135917732574}},"8014554":{"Id":"8014554","name":"Engen","coords":{"lat":47.8563453098322,"lon":8.77277638602844}},"8014555":{"Id":"8014555","name":"Welschingen-Neuhausen","coords":{"lat":47.8340322837636,"lon":8.76921007434999}},"8014556":{"Id":"8014556","name":"Mühlhausen (b Engen)","coords":{"lat":47.8136582195512,"lon":8.80438810088101}},"8014558":{"Id":"8014558","name":"Singen (Hohentwiel)","coords":{"lat":47.7584367925026,"lon":8.84038359432069}},"8014570":{"Id":"8014570","name":"Böhringen-Rickelshausen","coords":{"lat":47.7487312230909,"lon":8.92664881106669}},"8014571":{"Id":"8014571","name":"Radolfzell","coords":{"lat":47.7358702167294,"lon":8.9689774272603}},"8014580":{"Id":"8014580","name":"Markelfingen","coords":{"lat":47.7393681934164,"lon":9.00278103140642}},"8014581":{"Id":"8014581","name":"Allensbach","coords":{"lat":47.7144603803507,"lon":9.06886110371545}},"8014582":{"Id":"8014582","name":"Hegne","coords":{"lat":47.7060402727567,"lon":9.09956552013093}},"8014583":{"Id":"8014583","name":"Reichenau (Baden)","coords":{"lat":47.689341104776,"lon":9.12595802318204}},"8014584":{"Id":"8014584","name":"Konstanz-Petershausen","coords":{"lat":47.674094364051,"lon":9.17346991856573}},"8014586":{"Id":"8014586","name":"Konstanz","coords":{"lat":47.6587524089564,"lon":9.17730572482946}},"8014586:0:1B":{"Id":"8014586:0:1B","name":"Konstanz","coords":{"lat":47.6592969561496,"lon":9.17730572482946}},"8014586:0:1a":{"Id":"8014586:0:1a","name":"Konstanz","coords":{"lat":47.6589339253185,"lon":9.17730572482946}},"8014586:0:1b":{"Id":"8014586:0:1b","name":"Konstanz","coords":{"lat":47.6592364511864,"lon":9.17730572482946}},"8014586:0:2B":{"Id":"8014586:0:2B","name":"Konstanz","coords":{"lat":47.6593574610427,"lon":9.17730572482946}},"8014586:0:2a":{"Id":"8014586:0:2a","name":"Konstanz","coords":{"lat":47.6588129144806,"lon":9.17730572482946}},"8014586:0:2b":{"Id":"8014586:0:2b","name":"Konstanz","coords":{"lat":47.6594784706185,"lon":9.17730572482946}},"8014586:0:3B":{"Id":"8014586:0:3B","name":"Konstanz","coords":{"lat":47.6594179658657,"lon":9.17730572482946}},"8014586:0:3a":{"Id":"8014586:0:3a","name":"Konstanz","coords":{"lat":47.6588734199346,"lon":9.17730572482946}},"8014587":{"Id":"8014587","name":"Konstanz Hafen","coords":{"lat":47.6598656993764,"lon":9.17954252988723}},"8014592":{"Id":"8014592","name":"Dingelsdorf","coords":{"lat":47.7409932528913,"lon":9.15781228316135}},"8014608":{"Id":"8014608","name":"Unteruhldingen","coords":{"lat":47.7228730844611,"lon":9.22593153116562}},"8014611":{"Id":"8014611","name":"Meersburg (Bodensee)","coords":{"lat":47.6920259082029,"lon":9.27226663352695}},"8014613":{"Id":"8014613","name":"Hagnau (Bodensee)","coords":{"lat":47.6735197269995,"lon":9.31411015946706}},"8014614":{"Id":"8014614","name":"Immenstaad (Bodensee)","coords":{"lat":47.6623281650515,"lon":9.36703889601475}},"8014649":{"Id":"8014649","name":"Friedrichshafen Hafen","coords":{"lat":47.6508618878773,"lon":9.48187952195258}},"8014650":{"Id":"8014650","name":"Langenargen Hafen","coords":{"lat":47.5951526267703,"lon":9.53991068931478}},"8014651":{"Id":"8014651","name":"Kressbronn Hafen","coords":{"lat":47.5864709035759,"lon":9.59964865571704}},"8014652":{"Id":"8014652","name":"Nonnenhorn Hafen","coords":{"lat":47.5744425504853,"lon":9.60534397461915}},"8014653":{"Id":"8014653","name":"Wasserburg (Bodensee) Hafen","coords":{"lat":47.5683818799697,"lon":9.63665924542792}},"8014654":{"Id":"8014654","name":"Bad Schachen","coords":{"lat":47.5573678466146,"lon":9.66496516003446}},"8014655":{"Id":"8014655","name":"Lindau Hafen","coords":{"lat":47.5437804807741,"lon":9.68226671240901}},"8018120":{"Id":"8018120","name":"Karlsruhe Hbf Südausgang","coords":{"lat":48.9787884323004,"lon":8.465256114773}},"8021703":{"Id":"8021703","name":"Schopfheim-Schlattholz","coords":{"lat":47.6538028196217,"lon":7.83379436886612}},"8022193":{"Id":"8022193","name":"Nürnberg Hbf","coords":{"lat":49.445620940404,"lon":11.0829917688259}},"8022228":{"Id":"8022228","name":"Nürnberg-Schweinau","coords":{"lat":49.434382392932,"lon":11.0454062573331}},"8022229":{"Id":"8022229","name":"Nürnberg-Stein","coords":{"lat":49.4256070588947,"lon":11.0181783210676}},"8022534":{"Id":"8022534","name":"Würzburg Hbf","coords":{"lat":49.8018024200463,"lon":9.93578026877567}},"8022534:0:10b":{"Id":"8022534:0:10b","name":"Würzburg Hbf","coords":{"lat":49.8021503005494,"lon":9.93578026877567}},"8022534:0:11b":{"Id":"8022534:0:11b","name":"Würzburg Hbf","coords":{"lat":49.8019763606103,"lon":9.93578026877567}},"8022534:0:2A-C":{"Id":"8022534:0:2A-C","name":"Würzburg Hbf","coords":{"lat":49.8029620120025,"lon":9.93578026877567}},"8022534:0:2A-D":{"Id":"8022534:0:2A-D","name":"Würzburg Hbf","coords":{"lat":49.8028460540567,"lon":9.93578026877567}},"8022534:0:2E-G":{"Id":"8022534:0:2E-G","name":"Würzburg Hbf","coords":{"lat":49.8026141373319,"lon":9.93578026877567}},"8022534:0:3E-G":{"Id":"8022534:0:3E-G","name":"Würzburg Hbf","coords":{"lat":49.8029040330644,"lon":9.93578026877567}},"8022668":{"Id":"8022668","name":"Würzburg Süd","coords":{"lat":49.7882505296118,"lon":9.94350578022018}},"8022717":{"Id":"8022717","name":"Rosstal","coords":{"lat":49.4006922172948,"lon":10.8986305230404}},"8022721":{"Id":"8022721","name":"Heilsbronn","coords":{"lat":49.3459497534352,"lon":10.7910572677521}},"8022722":{"Id":"8022722","name":"Wicklesgreuth","coords":{"lat":49.3106937610138,"lon":10.7114485672623}},"8022727":{"Id":"8022727","name":"Sachsen (b Ansbach)","coords":{"lat":49.2929918505538,"lon":10.6615022374583}},"8022728":{"Id":"8022728","name":"Ansbach","coords":{"lat":49.2980301030978,"lon":10.5782373937617}},"8022733":{"Id":"8022733","name":"Leutershausen-Wieder","coords":{"lat":49.2955344749272,"lon":10.4425917858408}},"8022742":{"Id":"8022742","name":"Dombühl","coords":{"lat":49.252110251152,"lon":10.2985289637065}},"8022744":{"Id":"8022744","name":"Schnelldorf","coords":{"lat":49.1943259702445,"lon":10.1784870922729}},"8023788":{"Id":"8023788","name":"Sinsheim Museum/Arena","coords":{"lat":49.2412379583172,"lon":8.89992393136042}},"8023788:0:1a":{"Id":"8023788:0:1a","name":"Sinsheim Museum/Arena","coords":{"lat":49.241296607095,"lon":8.89992393136042}},"8023788:0:1b":{"Id":"8023788:0:1b","name":"Sinsheim Museum/Arena","coords":{"lat":49.2414139044418,"lon":8.89992393136042}},"8023788:0:2a":{"Id":"8023788:0:2a","name":"Sinsheim Museum/Arena","coords":{"lat":49.2413552558033,"lon":8.89992393136042}},"8023788:0:2b":{"Id":"8023788:0:2b","name":"Sinsheim Museum/Arena","coords":{"lat":49.2414725530108,"lon":8.89992393136042}},"8029005":{"Id":"8029005","name":"Oetisheim","coords":{"lat":48.9665704479449,"lon":8.81350600101609}},"8029006":{"Id":"8029006","name":"Mühlacker","coords":{"lat":48.953193275641,"lon":8.84609687952848}},"8029007":{"Id":"8029007","name":"Illingen (Württ)","coords":{"lat":48.95658509401,"lon":8.92116010467996}},"8029010":{"Id":"8029010","name":"Sersheim","coords":{"lat":48.9589208904718,"lon":9.0185015488807}},"8029011":{"Id":"8029011","name":"Sachsenheim","coords":{"lat":48.9612919659114,"lon":9.0631568016605}},"8029014":{"Id":"8029014","name":"Bietigheim-Bissingen","coords":{"lat":48.9479310766818,"lon":9.13755527350163}},"8029015":{"Id":"8029015","name":"Tamm(Württ)","coords":{"lat":48.9216058537652,"lon":9.12583225904224}},"8029016":{"Id":"8029016","name":"Asperg","coords":{"lat":48.9073604889044,"lon":9.14779606774202}},"8029017":{"Id":"8029017","name":"Ludwigsburg Pbf","coords":{"lat":48.8918648557411,"lon":9.18542649499903}},"8029026":{"Id":"8029026","name":"Kornwestheim Pbf","coords":{"lat":48.8622184411102,"lon":9.17996473807082}},"8029027":{"Id":"8029027","name":"Stuttgart-Zazenhausen","coords":{"lat":48.8361495922305,"lon":9.19953902811451}},"8029028":{"Id":"8029028","name":"Stuttgart-Münster","coords":{"lat":48.8207797575758,"lon":9.21586141682923}},"8029029":{"Id":"8029029","name":"Stuttgart Ebitzweg","coords":{"lat":48.8039911519682,"lon":9.23169871529047}},"8029031":{"Id":"8029031","name":"Stuttgart-Feuerbach","coords":{"lat":48.8136698364123,"lon":9.16938258402242}},"8029033":{"Id":"8029033","name":"Stuttgart Nord","coords":{"lat":48.8037663192485,"lon":9.1880226261705}},"8029034":{"Id":"8029034","name":"Stuttgart Hbf","coords":{"lat":48.7840836345793,"lon":9.18164458765236}},"8029034:0:15E-D":{"Id":"8029034:0:15E-D","name":"Stuttgart Hbf","coords":{"lat":48.7854449827771,"lon":9.18164458765236}},"8029034:0:15G-F":{"Id":"8029034:0:15G-F","name":"Stuttgart Hbf","coords":{"lat":48.7853857944929,"lon":9.18164458765236}},"8029034:0:16E-C":{"Id":"8029034:0:16E-C","name":"Stuttgart Hbf","coords":{"lat":48.7853266061389,"lon":9.18164458765236}},"8029034:0:16G-E":{"Id":"8029034:0:16G-E","name":"Stuttgart Hbf","coords":{"lat":48.7852674177151,"lon":9.18164458765236}},"8029038":{"Id":"8029038","name":"Stuttgart-Zuffenhausen","coords":{"lat":48.8294144119911,"lon":9.1667325539339}},"8029041":{"Id":"8029041","name":"Stuttgart-Bad Cannstatt","coords":{"lat":48.801375930118,"lon":9.21754126641077}},"8029044":{"Id":"8029044","name":"Stuttgart-Österfeld","coords":{"lat":48.7376514084186,"lon":9.11676825782422}},"8029045":{"Id":"8029045","name":"Stuttgart-Untertürkheim","coords":{"lat":48.7797507501779,"lon":9.25057231941244}},"8029052":{"Id":"8029052","name":"Stuttgart-Obertürkheim","coords":{"lat":48.7620068839797,"lon":9.26789183809268}},"8029053":{"Id":"8029053","name":"Esslingen-Mettingen","coords":{"lat":48.7470822634846,"lon":9.2758329452054}},"8029055":{"Id":"8029055","name":"Esslingen (Neckar)","coords":{"lat":48.7388066647887,"lon":9.30008745788001}},"8029056":{"Id":"8029056","name":"Oberesslingen","coords":{"lat":48.7298719909382,"lon":9.32727047838125}},"8029057":{"Id":"8029057","name":"Esslingen-Zell","coords":{"lat":48.7243314586832,"lon":9.35938524979299}},"8029058":{"Id":"8029058","name":"Altbach","coords":{"lat":48.7203964212374,"lon":9.38238212106965}},"8029060":{"Id":"8029060","name":"Plochingen","coords":{"lat":48.7130825971584,"lon":9.41081379981599}},"8029061":{"Id":"8029061","name":"Reichenbach an der Fils","coords":{"lat":48.7079433181417,"lon":9.46375151951652}},"8029062":{"Id":"8029062","name":"Ebersbach an der Fils","coords":{"lat":48.7161173112571,"lon":9.52657969049659}},"8029063":{"Id":"8029063","name":"Uhingen","coords":{"lat":48.708607245302,"lon":9.58552713944872}},"8029064":{"Id":"8029064","name":"Faurndau","coords":{"lat":48.7108123690758,"lon":9.61605189280735}},"8029066":{"Id":"8029066","name":"Göppingen","coords":{"lat":48.7000288690089,"lon":9.65196653787145}},"8029069":{"Id":"8029069","name":"Sindelfingen(Württ)","coords":{"lat":48.7039536427941,"lon":8.99907098928249}},"8029075":{"Id":"8029075","name":"Eislingen (Fils)","coords":{"lat":48.6964951250702,"lon":9.70513781954588}},"8029076":{"Id":"8029076","name":"Salach","coords":{"lat":48.6893972422682,"lon":9.73718072573488}},"8029077":{"Id":"8029077","name":"Süssen","coords":{"lat":48.6836387425984,"lon":9.76028539484565}},"8029083":{"Id":"8029083","name":"Gingen(Fils)","coords":{"lat":48.661037238653,"lon":9.78781875830775}},"8029084":{"Id":"8029084","name":"Kuchen","coords":{"lat":48.6405210113263,"lon":9.80339554533655}},"8029085":{"Id":"8029085","name":"Geislingen (Steige) West","coords":{"lat":48.6307673871825,"lon":9.82191880649767}},"8029086":{"Id":"8029086","name":"Geislingen (Steige)","coords":{"lat":48.6193550939709,"lon":9.84194225418349}},"8029096":{"Id":"8029096","name":"Amstetten(Württ)","coords":{"lat":48.5783279198169,"lon":9.87297006410129}},"8029097":{"Id":"8029097","name":"Urspring","coords":{"lat":48.5501432896269,"lon":9.89456556353453}},"8029098":{"Id":"8029098","name":"Lonsee","coords":{"lat":48.5449635997149,"lon":9.9173737886015}},"8029099":{"Id":"8029099","name":"Westerstetten","coords":{"lat":48.5201936689511,"lon":9.94928194749787}},"8029100":{"Id":"8029100","name":"Beimerstetten","coords":{"lat":48.4809736465306,"lon":9.97683327726565}},"8029103":{"Id":"8029103","name":"Ulm Hbf","coords":{"lat":48.3994426404872,"lon":9.98223215212396}},"8029103:0:3Nord":{"Id":"8029103:0:3Nord","name":"Ulm Hbf","coords":{"lat":48.40003905859,"lon":9.98223215212396}},"8029103:0:4Nord":{"Id":"8029103:0:4Nord","name":"Ulm Hbf","coords":{"lat":48.4000987000157,"lon":9.98223215212396}},"8029103:0:7Nord":{"Id":"8029103:0:7Nord","name":"Ulm Hbf","coords":{"lat":48.4005758289038,"lon":9.98223215212396}},"8029103:0:7Süd":{"Id":"8029103:0:7Süd","name":"Ulm Hbf","coords":{"lat":48.399800492188,"lon":9.98223215212396}},"8029284":{"Id":"8029284","name":"Wernau (Neckar)","coords":{"lat":48.6942478669242,"lon":9.41389502124095}},"8029285":{"Id":"8029285","name":"Wendlingen (Neckar)","coords":{"lat":48.672962130189,"lon":9.37301269265498}},"8029286":{"Id":"8029286","name":"Kirchheim(Teck)-Ötlingen","coords":{"lat":48.6577677830445,"lon":9.41628453989704}},"8029287":{"Id":"8029287","name":"Kirchheim (Teck)","coords":{"lat":48.6442545533232,"lon":9.44392570119325}},"8029288":{"Id":"8029288","name":"Kirchheim(Teck) Süd","coords":{"lat":48.6403132544496,"lon":9.45178595993039}},"8029289":{"Id":"8029289","name":"Dettingen(Teck)","coords":{"lat":48.6164689544438,"lon":9.45487616450819}},"8029290":{"Id":"8029290","name":"Owen(Teck)","coords":{"lat":48.5870577471574,"lon":9.44776150745697}},"8029291":{"Id":"8029291","name":"Brucken","coords":{"lat":48.5739832437554,"lon":9.45305258448117}},"8029292":{"Id":"8029292","name":"Unterlenningen (D)","coords":{"lat":48.5653106057206,"lon":9.46055351710461}},"8029293":{"Id":"8029293","name":"Oberlenningen","coords":{"lat":48.5544424458531,"lon":9.47077634503932}},"8029367":{"Id":"8029367","name":"Stuttgart-Vaihingen","coords":{"lat":48.7262751587605,"lon":9.11321991245145}},"8029369":{"Id":"8029369","name":"Leinfelden","coords":{"lat":48.6965069836861,"lon":9.14286431683152}},"8029373":{"Id":"8029373","name":"Stuttgart-Schwabstrasse","coords":{"lat":48.7702609003831,"lon":9.15694990048848}},"8029374":{"Id":"8029374","name":"Stuttgart Feuersee","coords":{"lat":48.772765258306,"lon":9.16627441313893}},"8029375":{"Id":"8029375","name":"Stuttgart Stadtmitte","coords":{"lat":48.7762285261966,"lon":9.17293092939519}},"8029376":{"Id":"8029376","name":"Stuttgart Hbf (Tief)","coords":{"lat":48.7829945294327,"lon":9.1798120244725}},"8029377":{"Id":"8029377","name":"Stuttgart-Neckarpark","coords":{"lat":48.7921683174688,"lon":9.24158916657}},"8029381":{"Id":"8029381","name":"Stuttgart-Rohr","coords":{"lat":48.7179013057839,"lon":9.10833307730516}},"8029382":{"Id":"8029382","name":"Hulb","coords":{"lat":48.6792675365425,"lon":8.98264080273366}},"8029383":{"Id":"8029383","name":"Böblingen","coords":{"lat":48.6877604957504,"lon":9.00412850433279}},"8029384":{"Id":"8029384","name":"Weilimdorf","coords":{"lat":48.8220809650853,"lon":9.09431935887094}},"8029391":{"Id":"8029391","name":"Ehningen(b Böblingen)","coords":{"lat":48.662680786872,"lon":8.94425579063789}},"8029392":{"Id":"8029392","name":"Gärtringen","coords":{"lat":48.6411264693435,"lon":8.90912267987108}},"8029393":{"Id":"8029393","name":"Nufringen","coords":{"lat":48.6202814741445,"lon":8.88979093495414}},"8029394":{"Id":"8029394","name":"Herrenberg","coords":{"lat":48.5939918042045,"lon":8.8626707965228}},"8029395":{"Id":"8029395","name":"Gäufelden","coords":{"lat":48.5596627834321,"lon":8.85030997821159}},"8029396":{"Id":"8029396","name":"Bondorf (b Herrenberg)","coords":{"lat":48.5235553331329,"lon":8.82766344989579}},"8029397":{"Id":"8029397","name":"Ergenzingen","coords":{"lat":48.4895952483949,"lon":8.8098678241149}},"8029398":{"Id":"8029398","name":"Eutingen im Gäu","coords":{"lat":48.4799553909861,"lon":8.78224462912438}},"8029399":{"Id":"8029399","name":"Horb","coords":{"lat":48.4414729866987,"lon":8.68898153631411}},"8029403":{"Id":"8029403","name":"Sulz (Neckar)","coords":{"lat":48.3665990353937,"lon":8.63675348568813}},"8029406":{"Id":"8029406","name":"Oberndorf (Neckar)","coords":{"lat":48.2958522548447,"lon":8.57551533276118}},"8029411":{"Id":"8029411","name":"Rottweil","coords":{"lat":48.1652996770855,"lon":8.63929571794254}},"8029416":{"Id":"8029416","name":"Spaichingen","coords":{"lat":48.0690440508501,"lon":8.74014957490468}},"8029429":{"Id":"8029429","name":"Tuttlingen","coords":{"lat":47.9805821294101,"lon":8.79854006838058}},"8029440":{"Id":"8029440","name":"Neuwirtshaus Porscheplatz","coords":{"lat":48.8338257912595,"lon":9.15250323983146}},"8029441":{"Id":"8029441","name":"Korntal","coords":{"lat":48.8264161081466,"lon":9.12117000271702}},"8029442":{"Id":"8029442","name":"Ditzingen","coords":{"lat":48.8236127979042,"lon":9.06704650684128}},"8029443":{"Id":"8029443","name":"Höfingen","coords":{"lat":48.8149889745152,"lon":9.02531976188812}},"8029444":{"Id":"8029444","name":"Leonberg","coords":{"lat":48.7996422350425,"lon":9.00385002659467}},"8029445":{"Id":"8029445","name":"Rutesheim","coords":{"lat":48.7900141076025,"lon":8.95954511677573}},"8029446":{"Id":"8029446","name":"Renningen","coords":{"lat":48.7751214904736,"lon":8.93235311312165}},"8029447":{"Id":"8029447","name":"Malmsheim","coords":{"lat":48.7717587937756,"lon":8.90450533931007}},"8029448":{"Id":"8029448","name":"Weil der Stadt","coords":{"lat":48.7554808692434,"lon":8.87280379292908}},"8029453":{"Id":"8029453","name":"Magstadt","coords":{"lat":48.7361702716693,"lon":8.96545603134606}},"8029454":{"Id":"8029454","name":"Maichingen","coords":{"lat":48.7223936097411,"lon":8.9699296414616}},"8029456":{"Id":"8029456","name":"Bad Wildbad Bf","coords":{"lat":48.7557177630102,"lon":8.55109014018257}},"8029461":{"Id":"8029461","name":"Neuenbürg(Enz)","coords":{"lat":48.8491502453606,"lon":8.60084782377688}},"8029486":{"Id":"8029486","name":"Hochdorf (b Horb)","coords":{"lat":48.4827183292743,"lon":8.72406074816386}},"8029486:0:1b":{"Id":"8029486:0:1b","name":"Hochdorf (b Horb)","coords":{"lat":48.4826587847773,"lon":8.72406074816386}},"8029488":{"Id":"8029488","name":"Bittelbronn","coords":{"lat":48.4443989121572,"lon":8.58943921966697}},"8029489":{"Id":"8029489","name":"Schopfloch (b Freudenstadt)","coords":{"lat":48.4538310435193,"lon":8.54774840732518}},"8029490":{"Id":"8029490","name":"Dornstetten","coords":{"lat":48.4721063962439,"lon":8.49495441807013}},"8029492":{"Id":"8029492","name":"Freudenstadt Hbf","coords":{"lat":48.4603842408786,"lon":8.42880248053836}},"8029497":{"Id":"8029497","name":"Enzberg","coords":{"lat":48.9338820630292,"lon":8.79979770977852}},"8029498":{"Id":"8029498","name":"Niefern","coords":{"lat":48.9202836204418,"lon":8.76974906352054}},"8029499":{"Id":"8029499","name":"Eutingen (Baden)","coords":{"lat":48.9098461932148,"lon":8.74376978550019}},"8029501":{"Id":"8029501","name":"Pforzheim Hbf","coords":{"lat":48.8941564334206,"lon":8.70310305258243}},"8029502":{"Id":"8029502","name":"Ispringen","coords":{"lat":48.9144334985518,"lon":8.67221897311011}},"8029503":{"Id":"8029503","name":"Ersingen","coords":{"lat":48.9306598502409,"lon":8.63855909940946}},"8029504":{"Id":"8029504","name":"Bilfingen","coords":{"lat":48.9486803249919,"lon":8.62050296219615}},"8029505":{"Id":"8029505","name":"Königsbach (Baden)","coords":{"lat":48.9625895216632,"lon":8.60893266133508}},"8029506":{"Id":"8029506","name":"Wilferdingen-Singen","coords":{"lat":48.9538657588289,"lon":8.57241614503054}},"8029512":{"Id":"8029512","name":"Stuttgart Nürnberger Str.","coords":{"lat":48.8064228309251,"lon":9.23486078509101}},"8029513":{"Id":"8029513","name":"Stuttgart-Sommerrain","coords":{"lat":48.8152669947091,"lon":9.24832653120183}},"8029514":{"Id":"8029514","name":"Fellbach","coords":{"lat":48.8200522495632,"lon":9.26997592955213}},"8029515":{"Id":"8029515","name":"Waiblingen","coords":{"lat":48.8261204077133,"lon":9.29987186221179}},"8029516":{"Id":"8029516","name":"Rommelshausen","coords":{"lat":48.8155390980867,"lon":9.31933835442137}},"8029518":{"Id":"8029518","name":"Stetten-Beinstein","coords":{"lat":48.8119306506207,"lon":9.35245025579862}},"8029519":{"Id":"8029519","name":"Endersbach","coords":{"lat":48.8131492701209,"lon":9.37023689842666}},"8029520":{"Id":"8029520","name":"Beutelsbach","coords":{"lat":48.8102919747944,"lon":9.38602928112368}},"8029521":{"Id":"8029521","name":"Grunbach","coords":{"lat":48.8103629654707,"lon":9.42003051463234}},"8029522":{"Id":"8029522","name":"Geradstetten","coords":{"lat":48.8052040479382,"lon":9.43975751827435}},"8029523":{"Id":"8029523","name":"Winterbach(b Schorndorf)","coords":{"lat":48.7984292045634,"lon":9.48099018982118}},"8029524":{"Id":"8029524","name":"Weiler(Rems)","coords":{"lat":48.8002990344256,"lon":9.50199280116681}},"8029525":{"Id":"8029525","name":"Schorndorf","coords":{"lat":48.8071564530049,"lon":9.52631019591131}},"8029536":{"Id":"8029536","name":"Urbach (b Schorndorf)","coords":{"lat":48.8049555545678,"lon":9.57373225976658}},"8029537":{"Id":"8029537","name":"Plüderhausen","coords":{"lat":48.7966835726381,"lon":9.59584878206469}},"8029538":{"Id":"8029538","name":"Waldhausen (b Schorndorf)","coords":{"lat":48.7891855407187,"lon":9.6379258699787}},"8029539":{"Id":"8029539","name":"Lorch (Württ)","coords":{"lat":48.7979025626866,"lon":9.69576839113121}},"8029541":{"Id":"8029541","name":"Schwäbisch Gmünd","coords":{"lat":48.8010090781382,"lon":9.78780079200207}},"8029543":{"Id":"8029543","name":"Böbingen (Rems)","coords":{"lat":48.8224358339977,"lon":9.91281034695754}},"8029546":{"Id":"8029546","name":"Mögglingen (b Gmünd)","coords":{"lat":48.8252865230934,"lon":9.96031325918839}},"8029549":{"Id":"8029549","name":"Aalen","coords":{"lat":48.8410156251947,"lon":10.0962732774588}},"8029569":{"Id":"8029569","name":"Goldberg(Württ)","coords":{"lat":48.6969101749667,"lon":9.02043292674183}},"8029572":{"Id":"8029572","name":"Neustadt-Hohenacker","coords":{"lat":48.8593107523521,"lon":9.32471926297399}},"8029573":{"Id":"8029573","name":"Schwaikheim","coords":{"lat":48.8683346739545,"lon":9.35494757228882}},"8029574":{"Id":"8029574","name":"Winnenden","coords":{"lat":48.8795842262363,"lon":9.39229053865487}},"8029575":{"Id":"8029575","name":"Nellmersbach","coords":{"lat":48.9033689330333,"lon":9.41540419091848}},"8029576":{"Id":"8029576","name":"Maubach","coords":{"lat":48.9261330572016,"lon":9.41999458202097}},"8029577":{"Id":"8029577","name":"Backnang","coords":{"lat":48.9426742229758,"lon":9.42599532811972}},"8029580":{"Id":"8029580","name":"Oppenweiler (Württ)","coords":{"lat":48.9815182000096,"lon":9.46278133900954}},"8029581":{"Id":"8029581","name":"Sulzbach (Murr)","coords":{"lat":48.9994613736197,"lon":9.50041176626654}},"8029583":{"Id":"8029583","name":"Murrhardt","coords":{"lat":48.9827621698273,"lon":9.57777467854569}},"8029584":{"Id":"8029584","name":"Fornsbach (D)","coords":{"lat":48.9754511913552,"lon":9.64249829477551}},"8029585":{"Id":"8029585","name":"Fichtenberg","coords":{"lat":48.987348671745,"lon":9.70076302411161}},"8029587":{"Id":"8029587","name":"Gaildorf West","coords":{"lat":49.0038224039594,"lon":9.75388939002183}},"8029590":{"Id":"8029590","name":"Favoritepark","coords":{"lat":48.9092085421434,"lon":9.18022524950325}},"8029591":{"Id":"8029591","name":"Freiberg (Neckar)","coords":{"lat":48.9301050893267,"lon":9.19779629646308}},"8029592":{"Id":"8029592","name":"Benningen (Neckar)","coords":{"lat":48.9436123553077,"lon":9.24449970809095}},"8029593":{"Id":"8029593","name":"Marbach (Neckar)","coords":{"lat":48.9436890571713,"lon":9.26446027370687}},"8029594":{"Id":"8029594","name":"Erdmannhausen","coords":{"lat":48.9482260576742,"lon":9.29940473826398}},"8029595":{"Id":"8029595","name":"Kirchberg (Murr)","coords":{"lat":48.9391634455122,"lon":9.32905812579689}},"8029596":{"Id":"8029596","name":"Burgstall(Murr)","coords":{"lat":48.9286473371206,"lon":9.36993147123002}},"8029611":{"Id":"8029611","name":"Besigheim","coords":{"lat":48.9977227483074,"lon":9.13664797506455}},"8029612":{"Id":"8029612","name":"Walheim (Württ)","coords":{"lat":49.0109406708342,"lon":9.15211696425924}},"8029613":{"Id":"8029613","name":"Kirchheim (Neckar)","coords":{"lat":49.0376427761631,"lon":9.15089525547267}},"8029614":{"Id":"8029614","name":"Lauffen (Neckar)","coords":{"lat":49.0765127970261,"lon":9.14612520131333}},"8029625":{"Id":"8029625","name":"Nordheim (Württ)","coords":{"lat":49.1093840512456,"lon":9.14881116401322}},"8029629":{"Id":"8029629","name":"Heilbronn Hbf","coords":{"lat":49.1433089533563,"lon":9.20772268035398}},"8029634":{"Id":"8029634","name":"Heilbronn Sülmertor","coords":{"lat":49.1517175152419,"lon":9.2205955383772}},"8029635":{"Id":"8029635","name":"Neckarsulm","coords":{"lat":49.1889659585199,"lon":9.2200655323595}},"8029636":{"Id":"8029636","name":"Bad Friedrichshall-Kochendorf","coords":{"lat":49.2178139345727,"lon":9.21154950346486}},"8029637":{"Id":"8029637","name":"Bad Friedrichshall-Jagstfeld","coords":{"lat":49.2315716881379,"lon":9.19977259008841}},"8029639":{"Id":"8029639","name":"Untergriesheim","coords":{"lat":49.2651022565115,"lon":9.22277844451792}},"8029640":{"Id":"8029640","name":"Herbolzheim (Jagst)","coords":{"lat":49.281607018678,"lon":9.25982496684016}},"8029641":{"Id":"8029641","name":"Neudenau","coords":{"lat":49.2883690937879,"lon":9.27082034591932}},"8029642":{"Id":"8029642","name":"Siglingen","coords":{"lat":49.2974325698303,"lon":9.30533361913999}},"8029643":{"Id":"8029643","name":"Züttlingen","coords":{"lat":49.2917204891836,"lon":9.32911202471395}},"8029644":{"Id":"8029644","name":"Möckmühl","coords":{"lat":49.3211057458294,"lon":9.35798387794957}},"8029645":{"Id":"8029645","name":"Roigheim","coords":{"lat":49.3608302472431,"lon":9.34183216913885}},"8029646":{"Id":"8029646","name":"Sennfeld","coords":{"lat":49.3787592684083,"lon":9.38051362527842}},"8029647":{"Id":"8029647","name":"Adelsheim Ost","coords":{"lat":49.403182516859,"lon":9.39512023180024}},"8029654":{"Id":"8029654","name":"Weinsberg","coords":{"lat":49.1481098234989,"lon":9.28702595364709}},"8029657":{"Id":"8029657","name":"Willsbach","coords":{"lat":49.1424803595469,"lon":9.35887321008097}},"8029660":{"Id":"8029660","name":"Bretzfeld","coords":{"lat":49.1728002168016,"lon":9.44030549059774}},"8029661":{"Id":"8029661","name":"Öhringen Hbf","coords":{"lat":49.203336291091,"lon":9.50271145339421}},"8029678":{"Id":"8029678","name":"Schwäbisch Hall-Hessental","coords":{"lat":49.0967334302959,"lon":9.76737310243834}},"8029683":{"Id":"8029683","name":"Eckartshausen-Ilshofen","coords":{"lat":49.1523226886143,"lon":9.93665163460139}},"8029685":{"Id":"8029685","name":"Crailsheim","coords":{"lat":49.1378670130721,"lon":10.0643291859511}},"8029723":{"Id":"8029723","name":"Stuttgart-Universität","coords":{"lat":48.7458383449754,"lon":9.10539558632568}},"8029724":{"Id":"8029724","name":"Echterdingen","coords":{"lat":48.6921546840172,"lon":9.1691669883542}},"8029743":{"Id":"8029743","name":"Osterburken","coords":{"lat":49.429656059861,"lon":9.4226895278737}},"8029745":{"Id":"8029745","name":"Rosenberg(Baden)","coords":{"lat":49.4575809718973,"lon":9.47142313204397}},"8029747":{"Id":"8029747","name":"Eubigheim","coords":{"lat":49.5017342109741,"lon":9.53801524406502}},"8029749":{"Id":"8029749","name":"Boxberg-Wölchingen","coords":{"lat":49.4855950261576,"lon":9.64004589404952}},"8029753":{"Id":"8029753","name":"Königshofen (Baden)","coords":{"lat":49.546028331957,"lon":9.7246761769782}},"8029754":{"Id":"8029754","name":"Lauda","coords":{"lat":49.5653871099185,"lon":9.70951261498015}},"8029759":{"Id":"8029759","name":"Wittighausen","coords":{"lat":49.618523078432,"lon":9.84624518439502}},"8029761":{"Id":"8029761","name":"Kirchheim (Unterfr)","coords":{"lat":49.6568091067944,"lon":9.85770768742198}},"8029763":{"Id":"8029763","name":"Geroldshausen","coords":{"lat":49.6869408585228,"lon":9.90398889086626}},"8029779":{"Id":"8029779","name":"Vaihingen (Enz)","coords":{"lat":48.9481139651025,"lon":8.95764068837313}},"8029789":{"Id":"8029789","name":"Oberaichen","coords":{"lat":48.7051926694447,"lon":9.12733244556693}},"8030446":{"Id":"8030446","name":"Neuenburg(Baden)","coords":{"lat":47.8114804117176,"lon":7.5627636644567}},"8033764":{"Id":"8033764","name":"Horb-Altheim Heiligenfeld","coords":{"lat":48.4677942921069,"lon":8.6601545988427}},"8060978":{"Id":"8060978","name":"Weil am Rhein Gartenstadt","coords":{"lat":47.5868283790853,"lon":7.63669501235002}},"8060979":{"Id":"8060979","name":"Weil am Rhein Pfädlistrasse","coords":{"lat":47.5868102024234,"lon":7.6460015586948}},"8063365":{"Id":"8063365","name":"Singen (Htw)-Landesgartenschau","coords":{"lat":47.7607375985681,"lon":8.82704361234966}},"8063797":{"Id":"8063797","name":"Offenburg Kreisschulzentrum","coords":{"lat":48.4597825734808,"lon":7.95519269637894}},"8064619":{"Id":"8064619","name":"Filderstadt (D)","coords":{"lat":48.6764915941101,"lon":9.21771194631478}},"8066175":{"Id":"8066175","name":"Mühlacker Rösslesweg","coords":{"lat":48.956337351606,"lon":8.86014653057407}},"8069220":{"Id":"8069220","name":"Lörrach Dammstrasse","coords":{"lat":47.5957462998186,"lon":7.67528663696117}},"8069221":{"Id":"8069221","name":"Lörrach Museum/Burghof","coords":{"lat":47.6047293259252,"lon":7.68064957920811}},"8069606":{"Id":"8069606","name":"Heidelberg Weststadt/Südstadt","coords":{"lat":49.3983830238709,"lon":8.68873899118736}},"8069607":{"Id":"8069607","name":"Heidelberg-Orthopädie","coords":{"lat":49.4100506463067,"lon":8.77491437640495}},"8073478":{"Id":"8073478","name":"Ellental (D)","coords":{"lat":48.955293280813,"lon":9.1237481675828}},"8079107":{"Id":"8079107","name":"Stuttgart Flughafen/Messe","coords":{"lat":48.6906484872386,"lon":9.19262200042583}},"8080100":{"Id":"8080100","name":"Wutöschingen","coords":{"lat":47.6620861588296,"lon":8.36365665612494}},"8080251":{"Id":"8080251","name":"Konstanz-Fürstenberg","coords":{"lat":47.6774755212736,"lon":9.16284284875312}},"8083840":{"Id":"8083840","name":"Schopfheim-West","coords":{"lat":47.6455423746135,"lon":7.80171553006575}},"8083846":{"Id":"8083846","name":"Lörrach Schwarzwaldstrasse","coords":{"lat":47.620892464188,"lon":7.69268700401699}},"8085022":{"Id":"8085022","name":"Lauchringen West","coords":{"lat":47.6327769644128,"lon":8.30809585579441}},"8085225":{"Id":"8085225","name":"Öhringen-Cappel","coords":{"lat":49.2019628368231,"lon":9.5269210503046}},"8087021":{"Id":"8087021","name":"Riehen Niederholz","coords":{"lat":47.5694728524244,"lon":7.63344311102106}},"8088575":{"Id":"8088575","name":"Eggingen","coords":{"lat":47.6937310494206,"lon":8.39666075966809}},"8090289":{"Id":"8090289","name":"Reichenberg(Unterfranken)","coords":{"lat":49.7311889780151,"lon":9.91288221218028}},"8091764":{"Id":"8091764","name":"Renningen-Süd","coords":{"lat":48.762735234116,"lon":8.93202073646648}},"8092895":{"Id":"8092895","name":"Grüntal-Wittlensweiler","coords":{"lat":48.4753997869683,"lon":8.46073758889325}},"8097911":{"Id":"8097911","name":"Maichingen Nord","coords":{"lat":48.727412899558,"lon":8.9792631372649}},"8098610":{"Id":"8098610","name":"München ZOB (Hackerbrücke)","coords":{"lat":48.1423646304029,"lon":11.5498552052006}},"8099960":{"Id":"8099960","name":"Schopfheim West","coords":{"lat":47.6412210060145,"lon":7.82320323166488}},"8099972":{"Id":"8099972","name":"Singen (Htw) Landesgartenschau","coords":{"lat":47.762778648435,"lon":8.83999731874846}},"8099982":{"Id":"8099982","name":"Wollmatingen","coords":{"lat":47.6925640616299,"lon":9.14684385354072}},"8099985":{"Id":"8099985","name":"Singen (Hohentwiel) Industrie","coords":{"lat":47.7666612529987,"lon":8.83334080249221}},"8099992":{"Id":"8099992","name":"Mainau (Bodensee)","coords":{"lat":47.7058468300365,"lon":9.20071582113687}},"8099998":{"Id":"8099998","name":"Überlingen Hafen","coords":{"lat":47.7658098824035,"lon":9.16075875729367}},"8101236":{"Id":"8101236","name":"Feldkirch","coords":{"lat":47.2409786035422,"lon":9.6041042995269}},"8102335":{"Id":"8102335","name":"Bregenz Riedenburg","coords":{"lat":47.4929102916425,"lon":9.72131647781513}},"8102336":{"Id":"8102336","name":"Bregenz","coords":{"lat":47.5030033151091,"lon":9.73963312646087}},"8102338":{"Id":"8102338","name":"Bregenz Hafen","coords":{"lat":47.5061164058366,"lon":9.74829288580099}},"8102351":{"Id":"8102351","name":"Hard-Fussach","coords":{"lat":47.4798587085702,"lon":9.68813271121513}},"8102352":{"Id":"8102352","name":"Lustenau","coords":{"lat":47.4503987812215,"lon":9.66711213356381}},"8301003":{"Id":"8301003","name":"Domodossola (I)","coords":{"lat":46.1152911807506,"lon":8.29623809404239}},"8301030":{"Id":"8301030","name":"Gallarate","coords":{"lat":45.660455902312,"lon":8.79883651242438}},"8301031":{"Id":"8301031","name":"Busto Arsizio","coords":{"lat":45.6158991676922,"lon":8.86579693371197}},"8301037":{"Id":"8301037","name":"Rho","coords":{"lat":45.5239668866003,"lon":9.0438969219663}},"8301039":{"Id":"8301039","name":"Rho Fiera Milano","coords":{"lat":45.5211283588439,"lon":9.08857014105178}},"8301113":{"Id":"8301113","name":"Luino (I)","coords":{"lat":45.9957925607713,"lon":8.7357927457761}},"8301113:0:1T":{"Id":"8301113:0:1T","name":"Luino (I)","coords":{"lat":45.9958549677043,"lon":8.7357927457761}},"8301116":{"Id":"8301116","name":"Porto Valtravaglia","coords":{"lat":45.958135873655,"lon":8.67373712594048}},"8301117":{"Id":"8301117","name":"Calde","coords":{"lat":45.9456820597456,"lon":8.66346938224156}},"8301118":{"Id":"8301118","name":"Laveno-Mombello","coords":{"lat":45.9001837610148,"lon":8.6237728298308}},"8301140":{"Id":"8301140","name":"Sangiano","coords":{"lat":45.874371694369,"lon":8.63082460481212}},"8301141":{"Id":"8301141","name":"Besozzo","coords":{"lat":45.8425653503428,"lon":8.66326276972619}},"8301142":{"Id":"8301142","name":"Travedona-Biandronno","coords":{"lat":45.7993749699474,"lon":8.70052488771665}},"8301143":{"Id":"8301143","name":"Ternate-Varano Borghi","coords":{"lat":45.7823625790867,"lon":8.69994098278189}},"8301144":{"Id":"8301144","name":"Mornago-Cimbro","coords":{"lat":45.729946084399,"lon":8.73419374457014}},"8301145":{"Id":"8301145","name":"Besnate","coords":{"lat":45.696156092718,"lon":8.7605772644684}},"8301203":{"Id":"8301203","name":"Arcisate","coords":{"lat":45.8581016815948,"lon":8.86259893130006}},"8301204":{"Id":"8301204","name":"Induno Olona","coords":{"lat":45.8467142195003,"lon":8.83784136206628}},"8301205":{"Id":"8301205","name":"Varese","coords":{"lat":45.8197692114517,"lon":8.83458047758447}},"8301307":{"Id":"8301307","name":"Como S. Giovanni","coords":{"lat":45.8089687702111,"lon":9.0727238594377}},"8301310":{"Id":"8301310","name":"Albate-Camerlata","coords":{"lat":45.7831832517394,"lon":9.07983851648892}},"8301312":{"Id":"8301312","name":"Cucciago","coords":{"lat":45.7383104519366,"lon":9.08344974393158}},"8301313":{"Id":"8301313","name":"Cantù-Cermenate","coords":{"lat":45.713426855166,"lon":9.09836177765005}},"8301315":{"Id":"8301315","name":"Carimate","coords":{"lat":45.6944619783635,"lon":9.10755154300787}},"8301316":{"Id":"8301316","name":"Camnago-Lentate","coords":{"lat":45.6662003500187,"lon":9.13328827590147}},"8301318":{"Id":"8301318","name":"Seregno","coords":{"lat":45.6445253180094,"lon":9.20211719298029}},"8301320":{"Id":"8301320","name":"Desio","coords":{"lat":45.6178281387669,"lon":9.21791855883015}},"8301321":{"Id":"8301321","name":"Lissone-Muggiò","coords":{"lat":45.6060333596659,"lon":9.23532790903881}},"8301322":{"Id":"8301322","name":"Monza","coords":{"lat":45.574822105206,"lon":9.27368597167606}},"8301325":{"Id":"8301325","name":"Sesto S. Giovanni","coords":{"lat":45.541039088161,"lon":9.23936134466507}},"8301326":{"Id":"8301326","name":"Milano Greco Pirelli","coords":{"lat":45.5128951889795,"lon":9.21449597759718}},"8301640":{"Id":"8301640","name":"Milano Certosa","coords":{"lat":45.4770278292704,"lon":9.09572971386721}},"8301645":{"Id":"8301645","name":"Milano Porta Garibaldi","coords":{"lat":45.4844348998938,"lon":9.18729499079026}},"8301666":{"Id":"8301666","name":"Milano Villapizzone","coords":{"lat":45.5009965083197,"lon":9.15065271034592}},"8301700":{"Id":"8301700","name":"Milano Centrale","coords":{"lat":45.486387281842,"lon":9.20471332415176}},"8302593":{"Id":"8302593","name":"Venezia S. Lucia","coords":{"lat":45.4413960454327,"lon":12.3204570054841}},"8319371":{"Id":"8319371","name":"Ferno-Lonate Pozzolo","coords":{"lat":45.6083711474954,"lon":8.75872673498286}},"8320005":{"Id":"8320005","name":"Malpensa Aeroporto T2","coords":{"lat":45.6272144319203,"lon":8.7111160249179}},"8324006":{"Id":"8324006","name":"Isola Superiore","coords":{"lat":0,"lon":0}},"8324007":{"Id":"8324007","name":"Oggebbio","coords":{"lat":45.9910431866996,"lon":8.6482609044793}},"8325631":{"Id":"8325631","name":"Busto Arsizio Nord","coords":{"lat":45.605430043765,"lon":8.85221440661419}},"8325635":{"Id":"8325635","name":"Malpensa Aeroporto T1","coords":{"lat":45.6272144319203,"lon":8.7111160249179}},"8500010":{"Id":"8500010","name":"Basel SBB","coords":{"lat":47.5474065481454,"lon":7.58955142623287}},"8500010:0:11AB":{"Id":"8500010:0:11AB","name":"Basel SBB","coords":{"lat":47.5478916217475,"lon":7.58955142623287}},"8500010:0:11CD":{"Id":"8500010:0:11CD","name":"Basel SBB","coords":{"lat":47.5492255510058,"lon":7.58955142623287}},"8500010:0:15BC":{"Id":"8500010:0:15BC","name":"Basel SBB","coords":{"lat":47.5494680799508,"lon":7.58955142623287}},"8500010:0:17C":{"Id":"8500010:0:17C","name":"Basel SBB","coords":{"lat":47.5491649185942,"lon":7.58955142623287}},"8500010:0:4B":{"Id":"8500010:0:4B","name":"Basel SBB","coords":{"lat":47.5492861833473,"lon":7.58955142623287}},"8500010:0:5AB":{"Id":"8500010:0:5AB","name":"Basel SBB","coords":{"lat":47.5484373241838,"lon":7.58955142623287}},"8500010:0:7AB":{"Id":"8500010:0:7AB","name":"Basel SBB","coords":{"lat":47.5488011226516,"lon":7.58955142623287}},"8500010:0:7CD":{"Id":"8500010:0:7CD","name":"Basel SBB","coords":{"lat":47.5485585906203,"lon":7.58955142623287}},"8500010:0:9AB":{"Id":"8500010:0:9AB","name":"Basel SBB","coords":{"lat":47.548861755484,"lon":7.58955142623287}},"8500010:0:9CD":{"Id":"8500010:0:9CD","name":"Basel SBB","coords":{"lat":47.5494074478198,"lon":7.58955142623287}},"8500016":{"Id":"8500016","name":"Basel St. Johann","coords":{"lat":47.5703577356128,"lon":7.57251038529075}},"8500020":{"Id":"8500020","name":"Muttenz","coords":{"lat":47.5335800633286,"lon":7.64787903763887}},"8500021":{"Id":"8500021","name":"Pratteln","coords":{"lat":47.5226557753483,"lon":7.69080054192007}},"8500022":{"Id":"8500022","name":"Frenkendorf-Füllinsdorf","coords":{"lat":47.5014558036563,"lon":7.71908849022094}},"8500023":{"Id":"8500023","name":"Liestal","coords":{"lat":47.484454449813,"lon":7.73135049385087}},"8500024":{"Id":"8500024","name":"Lausen","coords":{"lat":47.4701984492328,"lon":7.75981810520858}},"8500025":{"Id":"8500025","name":"Itingen","coords":{"lat":47.4672654106723,"lon":7.7872077382252}},"8500026":{"Id":"8500026","name":"Sissach","coords":{"lat":47.4627471179876,"lon":7.81201920637604}},"8500027":{"Id":"8500027","name":"Gelterkinden","coords":{"lat":47.4658808138629,"lon":7.84765537370202}},"8500028":{"Id":"8500028","name":"Tecknau","coords":{"lat":47.445757535104,"lon":7.88760345439237}},"8500031":{"Id":"8500031","name":"Diepflingen","coords":{"lat":47.4495543965023,"lon":7.83770204035259}},"8500032":{"Id":"8500032","name":"Sommerau","coords":{"lat":47.4390136336226,"lon":7.85146423050722}},"8500033":{"Id":"8500033","name":"Rümlingen","coords":{"lat":47.4253712985116,"lon":7.85052099945876}},"8500034":{"Id":"8500034","name":"Buckten","coords":{"lat":47.4089836692393,"lon":7.84779012099466}},"8500035":{"Id":"8500035","name":"Läufelfingen","coords":{"lat":47.3921226746296,"lon":7.85621631836087}},"8500037":{"Id":"8500037","name":"Trimbach","coords":{"lat":47.3660453097079,"lon":7.90427618606795}},"8500038":{"Id":"8500038","name":"Basel St. Jakob","coords":{"lat":47.5426040772714,"lon":7.61951922411527}},"8500051":{"Id":"8500051","name":"Reinach BL, Dorf","coords":{"lat":47.4928556638679,"lon":7.58917413381349}},"8500060":{"Id":"8500060","name":"Binningen, Schloss","coords":{"lat":47.5373220640445,"lon":7.57515143222643}},"8500061":{"Id":"8500061","name":"Binningen, Bottmingermühle","coords":{"lat":47.5324337568448,"lon":7.57343565003352}},"8500062":{"Id":"8500062","name":"Bottmingen, Schloss","coords":{"lat":47.5242754553111,"lon":7.57160308685366}},"8500063":{"Id":"8500063","name":"Oberwil BL, Zentrum","coords":{"lat":47.5147568441827,"lon":7.55929616745951}},"8500064":{"Id":"8500064","name":"Therwil, Zentrum","coords":{"lat":47.4993316940542,"lon":7.55716716023585}},"8500065":{"Id":"8500065","name":"Ettingen, Bahnhof","coords":{"lat":47.4837745240056,"lon":7.54600110125269}},"8500066":{"Id":"8500066","name":"Witterswil, Station","coords":{"lat":47.4874047402086,"lon":7.52220472937305}},"8500067":{"Id":"8500067","name":"Bättwil, Dorf","coords":{"lat":47.4891469120655,"lon":7.5099606920488}},"8500068":{"Id":"8500068","name":"Flüh, Bahnhof","coords":{"lat":47.4890558592184,"lon":7.49915395917934}},"8500069":{"Id":"8500069","name":"Leymen, Station (F)","coords":{"lat":47.4926857104279,"lon":7.48487074615985}},"8500070":{"Id":"8500070","name":"Rodersdorf, Station","coords":{"lat":47.4810000926648,"lon":7.45905316489066}},"8500071":{"Id":"8500071","name":"Binningen, Dorenbach","coords":{"lat":47.5437198420636,"lon":7.57803502428885}},"8500072":{"Id":"8500072","name":"Oberwil BL, Hüslimatt","coords":{"lat":47.5065411797304,"lon":7.5552717149861}},"8500073":{"Id":"8500073","name":"Basel, Aeschenplatz","coords":{"lat":47.5512991372625,"lon":7.59483352010423}},"8500076":{"Id":"8500076","name":"Münchenstein, Dorf","coords":{"lat":47.5121175353354,"lon":7.61949227465674}},"8500077":{"Id":"8500077","name":"Arlesheim, Dorf","coords":{"lat":47.4944641245462,"lon":7.61886345395777}},"8500079":{"Id":"8500079","name":"Basel, Heuwaage","coords":{"lat":47.5512748852658,"lon":7.58803327340249}},"8500080":{"Id":"8500080","name":"Talhaus","coords":{"lat":47.4514436126114,"lon":7.74976595717789}},"8500081":{"Id":"8500081","name":"Altmarkt","coords":{"lat":47.4764161925427,"lon":7.74470844212759}},"8500082":{"Id":"8500082","name":"Bubendorf","coords":{"lat":47.4595889409094,"lon":7.74153738917421}},"8500083":{"Id":"8500083","name":"Lampenberg-Ramlinsburg","coords":{"lat":47.4425072040253,"lon":7.76120151074632}},"8500084":{"Id":"8500084","name":"Hölstein","coords":{"lat":47.4274254708732,"lon":7.77113687779007}},"8500085":{"Id":"8500085","name":"Niederdorf","coords":{"lat":47.4043874094848,"lon":7.75185004863734}},"8500086":{"Id":"8500086","name":"Oberdorf BL","coords":{"lat":47.3921226746296,"lon":7.74890357450501}},"8500087":{"Id":"8500087","name":"Waldenburg","coords":{"lat":47.3862842174793,"lon":7.74884069243512}},"8500088":{"Id":"8500088","name":"Oberdorf BL Winkelweg","coords":{"lat":47.3971395820274,"lon":7.74882272612943}},"8500089":{"Id":"8500089","name":"Wasserfallen","coords":{"lat":47.3736502588124,"lon":7.6999903072779}},"8500090":{"Id":"8500090","name":"Basel Bad Bf","coords":{"lat":47.5681454996092,"lon":7.60728416994386}},"8500092":{"Id":"8500092","name":"Hölstein Süd","coords":{"lat":47.4229706108855,"lon":7.76780412808552}},"8500093":{"Id":"8500093","name":"Hölstein Weidbächli","coords":{"lat":47.4188314467774,"lon":7.76347424841546}},"8500094":{"Id":"8500094","name":"Hirschlang","coords":{"lat":47.4101265922006,"lon":7.75518279834188}},"8500095":{"Id":"8500095","name":"Münchenstein, Hofmatt","coords":{"lat":47.5196164656318,"lon":7.61813581857753}},"8500096":{"Id":"8500096","name":"Basel, Dreispitz","coords":{"lat":47.5371704484607,"lon":7.60880232277423}},"8500097":{"Id":"8500097","name":"Reigoldswil LRW","coords":{"lat":47.390200920557,"lon":7.69628026515397}},"8500100":{"Id":"8500100","name":"Tavannes","coords":{"lat":47.2198420142864,"lon":7.20163193703754}},"8500101":{"Id":"8500101","name":"Reconvilier","coords":{"lat":47.2352271141085,"lon":7.22741358569536}},"8500102":{"Id":"8500102","name":"Malleray-Bévilard","coords":{"lat":47.2387036987917,"lon":7.27593159419741}},"8500103":{"Id":"8500103","name":"Sorvilier","coords":{"lat":47.2392404143464,"lon":7.30576464478717}},"8500104":{"Id":"8500104","name":"Court","coords":{"lat":47.2405882783018,"lon":7.34209251488202}},"8500105":{"Id":"8500105","name":"Moutier","coords":{"lat":47.2806669766689,"lon":7.38103448245402}},"8500109":{"Id":"8500109","name":"Delémont","coords":{"lat":47.3619990299145,"lon":7.35005158830042}},"8500113":{"Id":"8500113","name":"Laufen","coords":{"lat":47.4193359438112,"lon":7.50263043932936}},"8500114":{"Id":"8500114","name":"Zwingen","coords":{"lat":47.4337941110722,"lon":7.53046024683526}},"8500115":{"Id":"8500115","name":"Grellingen","coords":{"lat":47.4412920754149,"lon":7.59198586065317}},"8500116":{"Id":"8500116","name":"Duggingen","coords":{"lat":47.4534360242394,"lon":7.60344836368013}},"8500117":{"Id":"8500117","name":"Aesch","coords":{"lat":47.4677390801552,"lon":7.60305310495506}},"8500118":{"Id":"8500118","name":"Dornach-Arlesheim","coords":{"lat":47.488728067662,"lon":7.6111020099019}},"8500119":{"Id":"8500119","name":"Münchenstein","coords":{"lat":47.513446307416,"lon":7.61758784625414}},"8500120":{"Id":"8500120","name":"Courtételle","coords":{"lat":47.3428221372959,"lon":7.31792783373584}},"8500121":{"Id":"8500121","name":"Courfaivre","coords":{"lat":47.3350727206901,"lon":7.29115803826535}},"8500122":{"Id":"8500122","name":"Bassecourt","coords":{"lat":47.3366799202069,"lon":7.24684414529357}},"8500123":{"Id":"8500123","name":"Glovelier","coords":{"lat":47.3352005678971,"lon":7.20929456641214}},"8500123:0:Pl":{"Id":"8500123:0:Pl","name":"Glovelier","coords":{"lat":47.3353832062272,"lon":7.20929456641214}},"8500124":{"Id":"8500124","name":"St-Ursanne","coords":{"lat":47.3676941557717,"lon":7.1659418707945}},"8500125":{"Id":"8500125","name":"Courgenay","coords":{"lat":47.4052203593271,"lon":7.12418817638281}},"8500126":{"Id":"8500126","name":"Porrentruy","coords":{"lat":47.42091018661,"lon":7.08007191277356}},"8500127":{"Id":"8500127","name":"Courtemaîche","coords":{"lat":47.4558656923596,"lon":7.05536824245684}},"8500128":{"Id":"8500128","name":"Boncourt","coords":{"lat":47.4926189428546,"lon":7.01654305587179}},"8500130":{"Id":"8500130","name":"Delle","coords":{"lat":47.5059950412356,"lon":7.00943738197341}},"8500135":{"Id":"8500135","name":"Pontenet","coords":{"lat":47.2388439772456,"lon":7.25415643170732}},"8500136":{"Id":"8500136","name":"Basel Dreispitz","coords":{"lat":47.537983102867,"lon":7.60893707006687}},"8500138":{"Id":"8500138","name":"Basel, St-Louis Grenze","coords":{"lat":47.5759515483794,"lon":7.57294157662719}},"8500141":{"Id":"8500141","name":"Courchavon","coords":{"lat":47.4397609734048,"lon":7.05763199697313}},"8500143":{"Id":"8500143","name":"Grandgourt","coords":{"lat":47.469913046872,"lon":7.04809188865446}},"8500144":{"Id":"8500144","name":"Buix","coords":{"lat":47.4793244351549,"lon":7.02995490306556}},"8500146":{"Id":"8500146","name":"Basel, Bhfeingang Gundeldingen","coords":{"lat":47.5455389728656,"lon":7.58745835162058}},"8500146:0:L":{"Id":"8500146:0:L","name":"Basel, Bhfeingang Gundeldingen","coords":{"lat":47.5455996094718,"lon":7.58745835162058}},"8500146:0:M":{"Id":"8500146:0:M","name":"Basel, Bhfeingang Gundeldingen","coords":{"lat":47.5456602460078,"lon":7.58745835162058}},"8500147":{"Id":"8500147","name":"Basel, Heiliggeistkirche","coords":{"lat":47.5419188403838,"lon":7.59799558990477}},"8500159":{"Id":"8500159","name":"Grenchen Nord","coords":{"lat":47.1918054989021,"lon":7.38946067982023}},"8500160":{"Id":"8500160","name":"Basel, IWB","coords":{"lat":47.5466728657926,"lon":7.58436814704278}},"8500161":{"Id":"8500161","name":"Basel, Tellplatz","coords":{"lat":47.5428587648048,"lon":7.59418673309957}},"8500162":{"Id":"8500162","name":"Tramelan-Dessous","coords":{"lat":47.2224349787818,"lon":7.1126717744388}},"8500164":{"Id":"8500164","name":"Tramelan-Chalet","coords":{"lat":47.2234538265951,"lon":7.09244171423761}},"8500165":{"Id":"8500165","name":"Le Pied-d'Or","coords":{"lat":47.2220384159559,"lon":7.05627554089392}},"8500167":{"Id":"8500167","name":"Les Breuleux-Eglise","coords":{"lat":47.2131119171267,"lon":7.00240357329778}},"8500169":{"Id":"8500169","name":"Muriaux","coords":{"lat":47.2436925042193,"lon":6.98547033018977}},"8500170":{"Id":"8500170","name":"Tramelan","coords":{"lat":47.2228132359439,"lon":7.10556610054042}},"8500171":{"Id":"8500171","name":"Les Reussilles","coords":{"lat":47.2242408273699,"lon":7.08344059508948}},"8500172":{"Id":"8500172","name":"La Chaux-des-Breuleux","coords":{"lat":47.2203667185129,"lon":7.02519383205906}},"8500173":{"Id":"8500173","name":"Les Breuleux","coords":{"lat":47.2104330642043,"lon":7.00515241806757}},"8500174":{"Id":"8500174","name":"Le Noirmont","coords":{"lat":47.2236795566945,"lon":6.95685000523373}},"8500175":{"Id":"8500175","name":"Le Creux-des-Biches","coords":{"lat":47.2034576483355,"lon":6.94064439750596}},"8500176":{"Id":"8500176","name":"Le Boéchet","coords":{"lat":47.1942411256237,"lon":6.92209418688631}},"8500177":{"Id":"8500177","name":"Les Bois","coords":{"lat":47.1768962951437,"lon":6.90616705689666}},"8500178":{"Id":"8500178","name":"La Ferrière","coords":{"lat":47.1426906631656,"lon":6.89452489081285}},"8500179":{"Id":"8500179","name":"La Cibourg","coords":{"lat":47.1221200384833,"lon":6.88365527587349}},"8500180":{"Id":"8500180","name":"La Large-Journée","coords":{"lat":47.1612560592825,"lon":6.89669881380072}},"8500181":{"Id":"8500181","name":"La Chaux-d'Abel","coords":{"lat":47.1527164160229,"lon":6.89871104003743}},"8500184":{"Id":"8500184","name":"La Chaux-de-Fonds-Est","coords":{"lat":47.1034798267689,"lon":6.83715847676099}},"8500186":{"Id":"8500186","name":"Alle","coords":{"lat":47.4241375410772,"lon":7.12832940984318}},"8500187":{"Id":"8500187","name":"Vendlincourt","coords":{"lat":47.4525370185823,"lon":7.15665329075541}},"8500188":{"Id":"8500188","name":"Bonfol","coords":{"lat":47.4739814021841,"lon":7.15539564935747}},"8500189":{"Id":"8500189","name":"Basel, Solothurnerstrasse","coords":{"lat":47.5441746306825,"lon":7.59096178122913}},"8500190":{"Id":"8500190","name":"Les Emibois","coords":{"lat":47.2323480853721,"lon":6.98531761659145}},"8500191":{"Id":"8500191","name":"Saignelégier","coords":{"lat":47.254674758732,"lon":6.99450738194927}},"8500192":{"Id":"8500192","name":"Le Bémont","coords":{"lat":47.2632589663815,"lon":7.01425235189696}},"8500193":{"Id":"8500193","name":"Basel, Markthalle","coords":{"lat":47.5488738820421,"lon":7.58599409770726}},"8500194":{"Id":"8500194","name":"Pré-Petitjean","coords":{"lat":47.2771200105368,"lon":7.05880878999549}},"8500195":{"Id":"8500195","name":"La Combe","coords":{"lat":47.2849144909102,"lon":7.10010434361222}},"8500196":{"Id":"8500196","name":"Bollement","coords":{"lat":47.2971676026743,"lon":7.12394563125607}},"8500199":{"Id":"8500199","name":"Combe-Tabeillon","coords":{"lat":47.3137970705374,"lon":7.15844093817106}},"8500200":{"Id":"8500200","name":"Pieterlen","coords":{"lat":47.1714981555406,"lon":7.34018808647942}},"8500201":{"Id":"8500201","name":"Lengnau","coords":{"lat":47.1796073709157,"lon":7.36654465691915}},"8500202":{"Id":"8500202","name":"Grenchen Süd","coords":{"lat":47.1887653869175,"lon":7.39817433807741}},"8500203":{"Id":"8500203","name":"Bettlach","coords":{"lat":47.1950651845438,"lon":7.42835773162802}},"8500204":{"Id":"8500204","name":"Selzach","coords":{"lat":47.2007416871622,"lon":7.4566277136232}},"8500205":{"Id":"8500205","name":"Bellach","coords":{"lat":47.209023408447,"lon":7.50785863428367}},"8500206":{"Id":"8500206","name":"Solothurn West","coords":{"lat":47.2068325703794,"lon":7.53194246705426}},"8500207":{"Id":"8500207","name":"Solothurn","coords":{"lat":47.204183915514,"lon":7.54268631785383}},"8500207:0:3AB":{"Id":"8500207:0:3AB","name":"Solothurn","coords":{"lat":47.2047942163791,"lon":7.54268631785383}},"8500207:0:3CD":{"Id":"8500207:0:3CD","name":"Solothurn","coords":{"lat":47.2043670065107,"lon":7.54268631785383}},"8500207:0:5CD":{"Id":"8500207:0:5CD","name":"Solothurn","coords":{"lat":47.2049773052694,"lon":7.54268631785383}},"8500208":{"Id":"8500208","name":"Luterbach-Attisholz","coords":{"lat":47.2171451966836,"lon":7.58351474752275}},"8500209":{"Id":"8500209","name":"Deitingen","coords":{"lat":47.2182190590417,"lon":7.61889938656914}},"8500210":{"Id":"8500210","name":"Wangen an der Aare","coords":{"lat":47.2319515967042,"lon":7.6562243866295}},"8500211":{"Id":"8500211","name":"Niederbipp","coords":{"lat":47.2703971869814,"lon":7.6948070280878}},"8500211:0:11A":{"Id":"8500211:0:11A","name":"Niederbipp","coords":{"lat":47.2705800493287,"lon":7.6948070280878}},"8500211:0:11B":{"Id":"8500211:0:11B","name":"Niederbipp","coords":{"lat":47.2706410033041,"lon":7.6948070280878}},"8500212":{"Id":"8500212","name":"Oensingen","coords":{"lat":47.2850241782959,"lon":7.7098538090989}},"8500213":{"Id":"8500213","name":"Oberbuchsiten","coords":{"lat":47.3052454261773,"lon":7.77171179957198}},"8500214":{"Id":"8500214","name":"Egerkingen","coords":{"lat":47.314856793346,"lon":7.79894871899028}},"8500215":{"Id":"8500215","name":"Hägendorf","coords":{"lat":47.3302630056806,"lon":7.84381058428545}},"8500216":{"Id":"8500216","name":"Wangen bei Olten","coords":{"lat":47.3413977422668,"lon":7.86834357469817}},"8500217":{"Id":"8500217","name":"Olten Hammer","coords":{"lat":47.34854976519,"lon":7.89770950134013}},"8500218":{"Id":"8500218","name":"Olten","coords":{"lat":47.3519276177994,"lon":7.90768978414808}},"8500218:0:10A":{"Id":"8500218:0:10A","name":"Olten","coords":{"lat":47.3525970764304,"lon":7.90768978414808}},"8500218:0:10AB":{"Id":"8500218:0:10AB","name":"Olten","coords":{"lat":47.3535099608777,"lon":7.90768978414808}},"8500218:0:10CD":{"Id":"8500218:0:10CD","name":"Olten","coords":{"lat":47.3530839501008,"lon":7.90768978414808}},"8500218:0:11A":{"Id":"8500218:0:11A","name":"Olten","coords":{"lat":47.3530230911376,"lon":7.90768978414808}},"8500218:0:11BCD":{"Id":"8500218:0:11BCD","name":"Olten","coords":{"lat":47.3531448089937,"lon":7.90768978414808}},"8500218:0:1A":{"Id":"8500218:0:1A","name":"Olten","coords":{"lat":47.3526579358848,"lon":7.90768978414808}},"8500218:0:1BCD":{"Id":"8500218:0:1BCD","name":"Olten","coords":{"lat":47.3529622321043,"lon":7.90768978414808}},"8500218:0:2BCD":{"Id":"8500218:0:2BCD","name":"Olten","coords":{"lat":47.3533882438638,"lon":7.90768978414808}},"8500218:0:C6":{"Id":"8500218:0:C6","name":"Olten","coords":{"lat":47.3534491024058,"lon":7.90768978414808}},"8500220":{"Id":"8500220","name":"Dotzigen","coords":{"lat":47.1187213918204,"lon":7.33774466890627}},"8500221":{"Id":"8500221","name":"Büren an der Aare","coords":{"lat":47.1382117603646,"lon":7.37122487955007}},"8500230":{"Id":"8500230","name":"Lüsslingen, Käserei","coords":{"lat":47.1902793600341,"lon":7.50129194955584}},"8500231":{"Id":"8500231","name":"Nennigkofen, Rössli","coords":{"lat":47.1874589399208,"lon":7.49413237674041}},"8500233":{"Id":"8500233","name":"Reinach BL, Süd","coords":{"lat":47.4859114040519,"lon":7.59166246715084}},"8500234":{"Id":"8500234","name":"Reinach BL, Surbaum","coords":{"lat":47.5063287932132,"lon":7.60210089075377}},"8500235":{"Id":"8500235","name":"Münchenstein, Freilager","coords":{"lat":47.5320334534397,"lon":7.61144336970991}},"8500236":{"Id":"8500236","name":"Basel, Denkmal","coords":{"lat":47.5481644736758,"lon":7.59803152251614}},"8500237":{"Id":"8500237","name":"Basel, Bankverein","coords":{"lat":47.5536151512318,"lon":7.59223738893276}},"8500238":{"Id":"8500238","name":"Bulle, Verdel","coords":{"lat":46.6248463965146,"lon":7.06595937965808}},"8500252":{"Id":"8500252","name":"Weissenstein","coords":{"lat":47.2518394696667,"lon":7.50832575823147}},"8500254":{"Id":"8500254","name":"Basel, Wiesenplatz","coords":{"lat":47.5772908233376,"lon":7.59170738291505}},"8500255":{"Id":"8500255","name":"Aesch BL, Dorf","coords":{"lat":47.4695729909719,"lon":7.59689066210515}},"8500256":{"Id":"8500256","name":"Muttenz, Dorf","coords":{"lat":47.5264228190558,"lon":7.64726818324558}},"8500260":{"Id":"8500260","name":"Crémines-Zoo","coords":{"lat":47.2726219692887,"lon":7.4566277136232}},"8500261":{"Id":"8500261","name":"Langendorf","coords":{"lat":47.2179383925701,"lon":7.51300598086239}},"8500262":{"Id":"8500262","name":"Lommiswil","coords":{"lat":47.218579042124,"lon":7.46949158849358}},"8500263":{"Id":"8500263","name":"Im Holz","coords":{"lat":47.2309695119999,"lon":7.47500724433884}},"8500264":{"Id":"8500264","name":"Oberdorf SO","coords":{"lat":47.2359834431725,"lon":7.49376406747387}},"8500265":{"Id":"8500265","name":"Gänsbrunnen","coords":{"lat":47.2654596647805,"lon":7.46518865828205}},"8500266":{"Id":"8500266","name":"Corcelles BE","coords":{"lat":47.2856822978339,"lon":7.45034848978633}},"8500267":{"Id":"8500267","name":"Crémines","coords":{"lat":47.2855726118129,"lon":7.43531069192808}},"8500268":{"Id":"8500268","name":"Grandval","coords":{"lat":47.2837749473926,"lon":7.42230308661221}},"8500272":{"Id":"8500272","name":"Solothurn Sternen","coords":{"lat":47.2123003427155,"lon":7.54535431424804}},"8500273":{"Id":"8500273","name":"St. Katharinen","coords":{"lat":47.2161079226205,"lon":7.54978300859936}},"8500274":{"Id":"8500274","name":"Feldbrunnen","coords":{"lat":47.2206656755756,"lon":7.55585561992085}},"8500275":{"Id":"8500275","name":"Bei den Weihern","coords":{"lat":47.2283891654685,"lon":7.56658150441474}},"8500280":{"Id":"8500280","name":"Solothurn Baseltor","coords":{"lat":47.2099936950002,"lon":7.54188681725085}},"8500283":{"Id":"8500283","name":"Riedholz","coords":{"lat":47.2310366115341,"lon":7.57267208204191}},"8500285":{"Id":"8500285","name":"Flumenthal","coords":{"lat":47.2391611271635,"lon":7.59667506643693}},"8500286":{"Id":"8500286","name":"Attiswil","coords":{"lat":47.2465282294232,"lon":7.61386882097737}},"8500287":{"Id":"8500287","name":"Wiedlisbach","coords":{"lat":47.2528821420024,"lon":7.64610037337606}},"8500288":{"Id":"8500288","name":"Oberbipp","coords":{"lat":47.2596437701605,"lon":7.66097647448315}},"8500289":{"Id":"8500289","name":"Buchli","coords":{"lat":47.2636308359693,"lon":7.67837684153897}},"8500292":{"Id":"8500292","name":"Klus","coords":{"lat":47.3034788884738,"lon":7.69475312917075}},"8500293":{"Id":"8500293","name":"Thalbrücke","coords":{"lat":47.3085468659633,"lon":7.68822237705429}},"8500294":{"Id":"8500294","name":"Balsthal","coords":{"lat":47.3129504950936,"lon":7.6939176959564}},"8500300":{"Id":"8500300","name":"Kaiseraugst","coords":{"lat":47.5384925215947,"lon":7.72411905581271}},"8500301":{"Id":"8500301","name":"Rheinfelden","coords":{"lat":47.5512081922171,"lon":7.79215745544139}},"8500302":{"Id":"8500302","name":"Möhlin","coords":{"lat":47.5618476915714,"lon":7.83385725093602}},"8500303":{"Id":"8500303","name":"Mumpf","coords":{"lat":47.5476187683987,"lon":7.90961217885637}},"8500304":{"Id":"8500304","name":"Eiken","coords":{"lat":47.5330342062232,"lon":7.98977783482235}},"8500305":{"Id":"8500305","name":"Frick","coords":{"lat":47.5073421725775,"lon":8.01307115014281}},"8500309":{"Id":"8500309","name":"Brugg AG","coords":{"lat":47.4808543854376,"lon":8.20882303373255}},"8500309:0:5B":{"Id":"8500309:0:5B","name":"Brugg AG","coords":{"lat":47.4812793637205,"lon":8.20882303373255}},"8500313":{"Id":"8500313","name":"Rheinfelden Augarten","coords":{"lat":47.5458664097056,"lon":7.76801972375374}},"8500320":{"Id":"8500320","name":"Stein-Säckingen","coords":{"lat":47.5415974430058,"lon":7.94882364101364}},"8500322":{"Id":"8500322","name":"Laufenburg","coords":{"lat":47.5597623986766,"lon":8.06127474829538}},"8500329":{"Id":"8500329","name":"Koblenz","coords":{"lat":47.6003379515845,"lon":8.22702290139134}},"8500371":{"Id":"8500371","name":"Wangen bei Olten, Bahnhof","coords":{"lat":47.3416412313198,"lon":7.86855917036639}},"8500380":{"Id":"8500380","name":"Gunzgen, Zentrum","coords":{"lat":47.3165437794901,"lon":7.82882668534425}},"8500381":{"Id":"8500381","name":"Hägendorf, Bodenmatt","coords":{"lat":47.3286008124483,"lon":7.84294820161258}},"8500382":{"Id":"8500382","name":"Härkingen, Pflug","coords":{"lat":47.3092960569861,"lon":7.81768757581962}},"8500383":{"Id":"8500383","name":"Kappel SO, Kreuz","coords":{"lat":47.3231876668248,"lon":7.84524788874024}},"8500385":{"Id":"8500385","name":"Neuendorf, Kirche","coords":{"lat":47.3023519284078,"lon":7.7944661257219}},"8500385:0:A1":{"Id":"8500385:0:A1","name":"Neuendorf, Kirche","coords":{"lat":47.3024737630866,"lon":7.7944661257219}},"8500385:0:B1":{"Id":"8500385:0:B1","name":"Neuendorf, Kirche","coords":{"lat":47.3024128457823,"lon":7.7944661257219}},"8500385:0:C1":{"Id":"8500385:0:C1","name":"Neuendorf, Kirche","coords":{"lat":47.3025346803208,"lon":7.7944661257219}},"8500386":{"Id":"8500386","name":"Niederbuchsiten, Sonne","coords":{"lat":47.2963573154695,"lon":7.76889108957945}},"8500387":{"Id":"8500387","name":"Rickenbach SO, Dorf","coords":{"lat":47.3401254937021,"lon":7.85759074074576}},"8500388":{"Id":"8500388","name":"Wisen SO, Kirche","coords":{"lat":47.3924328245738,"lon":7.88287831599725}},"8500453":{"Id":"8500453","name":"Solothurn, Spital","coords":{"lat":47.1992341161229,"lon":7.54234495804582}},"8500454":{"Id":"8500454","name":"Bellach, Breitenfeld","coords":{"lat":47.2135634644291,"lon":7.48701771968919}},"8500455":{"Id":"8500455","name":"Langendorf, Ladendorf","coords":{"lat":47.2190183402014,"lon":7.51468583044393}},"8500456":{"Id":"8500456","name":"Oberdorf SO, Endhalt","coords":{"lat":47.2302253114704,"lon":7.5009236402893}},"8500457":{"Id":"8500457","name":"Rüttenen, Dorf","coords":{"lat":47.2304388126913,"lon":7.53042431422389}},"8500458":{"Id":"8500458","name":"Zuchwil, Rainstrasse","coords":{"lat":47.2022736284245,"lon":7.55266660066179}},"8500459":{"Id":"8500459","name":"Kriegstetten, Dorfplatz","coords":{"lat":47.1745270435186,"lon":7.59805847197466}},"8500460":{"Id":"8500460","name":"Recherswil, Dorf","coords":{"lat":47.1631800383721,"lon":7.59405198580693}},"8500461":{"Id":"8500461","name":"Halten, Käserei","coords":{"lat":47.1710951050045,"lon":7.6021727559765}},"8500462":{"Id":"8500462","name":"Heinrichswil","coords":{"lat":47.1570719277384,"lon":7.63632670308348}},"8500463":{"Id":"8500463","name":"Winistorf, Mösli","coords":{"lat":47.1591670888081,"lon":7.64763649251212}},"8500464":{"Id":"8500464","name":"Burgäschi","coords":{"lat":47.1744476595463,"lon":7.67361577053248}},"8500465":{"Id":"8500465","name":"Steinhof SO","coords":{"lat":47.1612988151303,"lon":7.68703660087909}},"8500466":{"Id":"8500466","name":"Hersiwil, Dorf","coords":{"lat":47.166447589225,"lon":7.63492533124006}},"8500467":{"Id":"8500467","name":"Zuchwil, Kornfeld","coords":{"lat":47.2051970111037,"lon":7.55913447070835}},"8500468":{"Id":"8500468","name":"Zuchwil, Mc Donald's","coords":{"lat":47.2016510918925,"lon":7.57260021681917}},"8500476":{"Id":"8500476","name":"Aeschi SO, Dorf","coords":{"lat":47.1805049263116,"lon":7.66453380300876}},"8500477":{"Id":"8500477","name":"Bolken, Dorf","coords":{"lat":47.193856560415,"lon":7.66378820132284}},"8500478":{"Id":"8500478","name":"Hüniken","coords":{"lat":47.1848520547263,"lon":7.63807841788776}},"8500479":{"Id":"8500479","name":"Niederönz, Post","coords":{"lat":47.1844246842836,"lon":7.69156410991168}},"8500480":{"Id":"8500480","name":"Röthenbach b. H., Post","coords":{"lat":47.2042754610914,"lon":7.68383859846718}},"8500485":{"Id":"8500485","name":"Derendingen, Pestalozziplatz","coords":{"lat":47.1948149161507,"lon":7.58595816509589}},"8500487":{"Id":"8500487","name":"St. Niklaus SO","coords":{"lat":47.2197687993303,"lon":7.54280309884078}},"8500488":{"Id":"8500488","name":"Horriwil, Post","coords":{"lat":47.1824953691751,"lon":7.62172009656167}},"8500490":{"Id":"8500490","name":"Langendorf, Chutz","coords":{"lat":47.2218126788686,"lon":7.51492837557067}},"8500494":{"Id":"8500494","name":"Solothurn, Amthausplatz","coords":{"lat":47.2081202326857,"lon":7.53406249112508}},"8500497":{"Id":"8500497","name":"Winistorf, Dorf","coords":{"lat":47.1525209288657,"lon":7.65053805088023}},"8500498":{"Id":"8500498","name":"Zuchwil, Aarmatt","coords":{"lat":47.2060025913776,"lon":7.55469679320418}},"8500550":{"Id":"8500550","name":"Brugg AG, Brücke","coords":{"lat":47.4864152579887,"lon":8.20691860532995}},"8500551":{"Id":"8500551","name":"Bözberg, Haldensteinstrasse","coords":{"lat":47.4801440569185,"lon":8.17262092777749}},"8500552":{"Id":"8500552","name":"Rüfenach AG, Hinterrein","coords":{"lat":47.5080946092691,"lon":8.22002502532708}},"8500553":{"Id":"8500553","name":"Oberflachs, Kasteln","coords":{"lat":47.4411584095543,"lon":8.11894658954388}},"8500554":{"Id":"8500554","name":"Bözberg, Kirchbözberg","coords":{"lat":47.4913503428325,"lon":8.16091587962378}},"8500555":{"Id":"8500555","name":"Lauffohr, Dorf","coords":{"lat":47.5023903846562,"lon":8.23376026602318}},"8500556":{"Id":"8500556","name":"Mettau, Linde","coords":{"lat":47.5606474459154,"lon":8.13279861122693}},"8500557":{"Id":"8500557","name":"Mettau, Post","coords":{"lat":47.5639389630009,"lon":8.12678888197533}},"8500558":{"Id":"8500558","name":"Mönthal, Unterdorf","coords":{"lat":47.5171472760223,"lon":8.14452162568632}},"8500559":{"Id":"8500559","name":"Umiken, Mühlehalde","coords":{"lat":47.4848490455762,"lon":8.19731561494137}},"8500560":{"Id":"8500560","name":"Oberhofen AG, Ausserdorf","coords":{"lat":47.552063069413,"lon":8.13147808775909}},"8500561":{"Id":"8500561","name":"Remigen, Zentrum","coords":{"lat":47.5152664885308,"lon":8.18924874368886}},"8500562":{"Id":"8500562","name":"Riniken, Post","coords":{"lat":47.4906522962576,"lon":8.18748804573174}},"8500563":{"Id":"8500563","name":"Riniken, Gemeindehaus","coords":{"lat":47.4945976549161,"lon":8.18800008544376}},"8500564":{"Id":"8500564","name":"Rüfenach AG, Dorf","coords":{"lat":47.509381008305,"lon":8.20533757042968}},"8500565":{"Id":"8500565","name":"Bözberg, Neustalden","coords":{"lat":47.4808786700036,"lon":8.13851189643472}},"8500566":{"Id":"8500566","name":"Stilli, Villigerstrasse","coords":{"lat":47.5153938988444,"lon":8.23149651150688}},"8500567":{"Id":"8500567","name":"Thalheim AG, Post","coords":{"lat":47.4388374300137,"lon":8.10636119241161}},"8500568":{"Id":"8500568","name":"Remigen, Abzw. Ueberthal","coords":{"lat":47.5108615417536,"lon":8.15955044039173}},"8500569":{"Id":"8500569","name":"Gansingen, Oberbüren","coords":{"lat":47.5311054656123,"lon":8.13888918885411}},"8500570":{"Id":"8500570","name":"Bözberg, Ursprung","coords":{"lat":47.4829488879795,"lon":8.15817601800684}},"8500571":{"Id":"8500571","name":"Veltheim AG, Unterdorf","coords":{"lat":47.438150837908,"lon":8.15100746203857}},"8500572":{"Id":"8500572","name":"Villigen, Post","coords":{"lat":47.5232017404736,"lon":8.21547056683596}},"8500573":{"Id":"8500573","name":"Schinznach Dorf, Wallbach","coords":{"lat":47.4633483648181,"lon":8.15628955590992}},"8500574":{"Id":"8500574","name":"Veltheim AG, Wildenstein","coords":{"lat":47.4264713238586,"lon":8.1592270468894}},"8500575":{"Id":"8500575","name":"Brugg AG, Aare AG","coords":{"lat":47.4680002038141,"lon":8.18031050661062}},"8500576":{"Id":"8500576","name":"Windisch, Zentrum","coords":{"lat":47.4789783687934,"lon":8.21650362941284}},"8500577":{"Id":"8500577","name":"Windisch, Löwen","coords":{"lat":47.4829063916565,"lon":8.22725646336524}},"8500578":{"Id":"8500578","name":"Windisch, Reformierte Kirche","coords":{"lat":47.4812854348139,"lon":8.22391473050786}},"8500579":{"Id":"8500579","name":"Bözberg, Egenwil","coords":{"lat":47.4920787293666,"lon":8.14509654746824}},"8500580":{"Id":"8500580","name":"Bözberg, Vierlinden","coords":{"lat":47.4793183638349,"lon":8.15945162571046}},"8500581":{"Id":"8500581","name":"Oberflachs, Mitteldorf","coords":{"lat":47.4410976522326,"lon":8.13102893011697}},"8500582":{"Id":"8500582","name":"Elfingen, Sternen","coords":{"lat":47.5065654524205,"lon":8.09862669781426}},"8500583":{"Id":"8500583","name":"Frick, Bahnhof","coords":{"lat":47.5067960424167,"lon":8.01297233546155}},"8500584":{"Id":"8500584","name":"Obermumpf, Alte Post","coords":{"lat":47.5320819752273,"lon":7.93437873124299}},"8500585":{"Id":"8500585","name":"Ittenthal, Dorfmitte","coords":{"lat":47.5182817829753,"lon":8.05842708884432}},"8500586":{"Id":"8500586","name":"Schupfart, Dorf","coords":{"lat":47.5135858568695,"lon":7.96531670963237}},"8500588":{"Id":"8500588","name":"Rheinsulz, Dorf","coords":{"lat":47.5550580610641,"lon":8.08974235965309}},"8500589":{"Id":"8500589","name":"Sulz AG, Bütz","coords":{"lat":47.5401420339896,"lon":8.09853686628584}},"8500591":{"Id":"8500591","name":"Asp AG, Abzw.","coords":{"lat":47.4460916699054,"lon":8.05375584936625}},"8500592":{"Id":"8500592","name":"Küttigen, Abzw. Giebel","coords":{"lat":47.4219799154731,"lon":8.05211193239608}},"8500593":{"Id":"8500593","name":"Oberhof, Rohr","coords":{"lat":47.4503137358925,"lon":8.01602660742798}},"8500595":{"Id":"8500595","name":"Hornussen, Unterdorf","coords":{"lat":47.5004847927872,"lon":8.06108610208569}},